,eventid,iyear,imonth,iday,country,country_txt,region,region_txt,city,latitude,longitude,success,attacktype1,attacktype1_txt,targtype1,targtype1_txt,natlty1,natlty1_txt,weaptype1,weaptype1_txt,weapdetail,nkill,nkillus,nwound,nwoundus,location
80,197002210002,1970,2,21,199,Switzerland,8,Western Europe,Zurich,47.36865,8.539182,1,3,Bombing/Explosion,6,Airports & Aircraft,199.0,Switzerland,6,Explosives,Explosive,47.0,,0.0,,
1085,197111200002,1971,11,20,201,Taiwan,4,East Asia,Unknown,23.583333,119.58333,1,3,Bombing/Explosion,6,Airports & Aircraft,44.0,China,6,Explosives,Explosive,25.0,,,,
1099,197112040001,1971,12,4,603,United Kingdom,8,Western Europe,Belfast,54.607712,-5.95621,1,3,Bombing/Explosion,1,Business,233.0,Northern Ireland,6,Explosives,Bomb,15.0,,,,
1314,197205300001,1972,5,30,97,Israel,10,Middle East & North Africa,Lod,32.004360999999996,34.888228999999995,1,3,Bombing/Explosion,6,Airports & Aircraft,97.0,Israel,5,Firearms,Automatic firearms; Grenades,26.0,,72.0,,
1342,197206150002,1972,6,15,428,South Vietnam,5,Southeast Asia,Pleiku,13.977955999999999,108.002298,1,3,Bombing/Explosion,6,Airports & Aircraft,89.0,Hong Kong,6,Explosives,Explosive,81.0,,0.0,,
1469,197209050002,1972,9,5,362,West Germany (FRG),8,Western Europe,Munich,48.139126,11.580186,1,1,Assassination,14,Private Citizens & Property,97.0,Israel,5,Firearms,Automatic firearms,16.0,,,,
2138,197312170002,1973,12,17,98,Italy,8,Western Europe,Rome,41.890961,12.490069,1,5,Hostage Taking (Barricade Incident),6,Airports & Aircraft,217.0,United States,5,Firearms,Automatic firearms; Grenades; Incendiary,30.0,30.0,50.0,50.0,
2139,197312170003,1973,12,17,98,Italy,8,Western Europe,Rome,41.890961,12.490069,1,4,Hijacking,6,Airports & Aircraft,75.0,Germany,5,Firearms,Submachine guns; Grenades,31.0,,,,
2225,197402040006,1974,2,4,603,United Kingdom,8,Western Europe,Batley,53.717059,-1.635032,1,3,Bombing/Explosion,4,Military,216.0,Great Britain,6,Explosives,Explosive,12.0,,14.0,,
2326,197404110001,1974,4,11,97,Israel,10,Middle East & North Africa,Qiryat Shemona,33.208509,35.570347999999996,1,5,Hostage Taking (Barricade Incident),14,Private Citizens & Property,97.0,Israel,5,Firearms,Automatic firearms; Explosive,21.0,,,,
2380,197405170001,1974,5,17,96,Ireland,8,Western Europe,Dublin,53.361675,-6.2454849999999995,1,3,Bombing/Explosion,14,Private Citizens & Property,96.0,Ireland,6,Explosives,Car bomb,26.0,,,,
2382,197405180001,1974,5,18,97,Israel,10,Middle East & North Africa,Maalot,33.014796999999994,35.275805,1,3,Bombing/Explosion,8,Educational Institution,97.0,Israel,5,Firearms,Automatic firearm; Explosive,25.0,,70.0,,
2460,197406250001,1974,6,25,97,Israel,10,Middle East & North Africa,Nahariyya,33.004219,35.092571,1,5,Hostage Taking (Barricade Incident),14,Private Citizens & Property,97.0,Israel,5,Firearms,Automatic firearms,14.0,,,,
2499,197408040001,1974,8,4,98,Italy,8,Western Europe,Bologna,44.49419,11.346518,1,3,Bombing/Explosion,19,Transportation,98.0,Italy,6,Explosives,Explosive,12.0,,48.0,,
2531,197409080002,1974,9,8,78,Greece,8,Western Europe,Athens,37.99749,23.762728,1,3,Bombing/Explosion,6,Airports & Aircraft,217.0,United States,6,Explosives,Explosive,88.0,,0.0,,
2538,197409130002,1974,9,13,185,Spain,8,Western Europe,Madrid,40.465595,-3.6962629999999996,1,3,Bombing/Explosion,1,Business,185.0,Spain,6,Explosives,Explosive,12.0,,70.0,,
2672,197411210002,1974,11,21,603,United Kingdom,8,Western Europe,Birmingham,52.482960999999996,-1.8935919999999997,1,3,Bombing/Explosion,1,Business,216.0,Great Britain,6,Explosives,Explosive,11.0,,81.0,,
2853,197503010001,1975,3,1,104,Kenya,11,Sub-Saharan Africa,Nairobi,-1.28518,36.821107,1,3,Bombing/Explosion,19,Transportation,104.0,Kenya,6,Explosives,Explosive,27.0,,100.0,,
2863,197503050002,1975,3,5,97,Israel,10,Middle East & North Africa,Tel Aviv,32.08297,34.811886,1,5,Hostage Taking (Barricade Incident),1,Business,97.0,Israel,5,Firearms,Automatic firearm; Explosive,18.0,,,,
2955,197504130001,1975,4,13,110,Lebanon,10,Middle East & North Africa,Ain Al-Remmane,33.802845,35.589649,1,2,Armed Assault,17,Terrorists/Non-State Militia,110.0,Lebanon,5,Firearms,No additional information available.,22.0,0.0,,0.0,
2965,197504250002,1975,4,25,130,Mexico,1,North America,Mexico City,19.371887,-99.086624,1,2,Armed Assault,1,Business,130.0,Mexico,5,Firearms,Pistols,12.0,,,,
3166,197508080004,1975,8,8,145,Nicaragua,2,Central America & Caribbean,Managua,12.103822000000001,-86.267014,1,5,Hostage Taking (Barricade Incident),10,Journalists & Media,145.0,Nicaragua,5,Firearms,Automatic firearm,11.0,,,,
3308,197510050003,1975,10,5,11,Argentina,3,South America,Formosa,-26.184895,-58.175415,1,2,Armed Assault,4,Military,11.0,Argentina,5,Firearms,Automatic firearms,26.0,11.0,0.0,,
3385,197511010001,1975,11,1,83,Guatemala,2,Central America & Caribbean,Chiquimula,14.8,-89.55,1,1,Assassination,4,Military,83.0,Guatemala,5,Firearms,Automatic firearm; Pistols,19.0,,0.0,,
3466,197512240003,1975,12,24,11,Argentina,3,South America,Buenos Aires,-34.61768,-58.444435,1,2,Armed Assault,4,Military,11.0,Argentina,5,Firearms,Automatic firearms,92.0,,,,
3473,197512290003,1975,12,29,217,United States,1,North America,New York City,40.697132,-73.931351,1,3,Bombing/Explosion,6,Airports & Aircraft,217.0,United States,6,Explosives,Explosive,11.0,,74.0,,
3850,197605210003,1976,5,21,160,Philippines,5,Southeast Asia,Davao City,7.083241,125.600998,1,4,Hijacking,6,Airports & Aircraft,160.0,Philippines,5,Firearms,Firearm; Grenades,13.0,,25.0,,
3953,197606270001,1976,6,27,78,Greece,8,Western Europe,Athens,37.99749,23.762728,1,4,Hijacking,6,Airports & Aircraft,69.0,France,13,Unknown,,13.0,,,,
3962,197607020001,1976,7,2,11,Argentina,3,South America,Buenos Aires,-34.61768,-58.444435,1,3,Bombing/Explosion,3,Police,11.0,Argentina,6,Explosives,Explosive,25.0,,30.0,,
4092,197608200001,1976,8,20,11,Argentina,3,South America,Buenos Aires,-34.61768,-58.444435,1,2,Armed Assault,17,Terrorists/Non-State Militia,11.0,Argentina,5,Firearms,Automatic firearms; Explosives,30.0,,0.0,,
4198,197610060001,1976,10,6,20,Barbados,2,Central America & Caribbean,Grantly Adams International Airport,13.077333,-59.493007999999996,1,3,Bombing/Explosion,6,Airports & Aircraft,51.0,Cuba,6,Explosives,Explosive,73.0,,0.0,,
5419,197710140002,1977,10,14,145,Nicaragua,2,Central America & Caribbean,San Carlos,11.1236,-84.77795,1,2,Armed Assault,14,Private Citizens & Property,145.0,Nicaragua,5,Firearms,Automatic firearms,13.0,,12.0,,
5434,197710170005,1977,10,17,145,Nicaragua,2,Central America & Caribbean,Managua,12.103822000000001,-86.267014,1,2,Armed Assault,4,Military,145.0,Nicaragua,5,Firearms,Automatic firearms,11.0,,0.0,,
5602,197712040003,1977,12,4,121,Malaysia,5,Southeast Asia,Unknown,5.2994449999999995,100.46079499999999,1,4,Hijacking,6,Airports & Aircraft,121.0,Malaysia,5,Firearms,Firearm; Firearm,100.0,1.0,0.0,0.0,
5899,197802020002,1978,2,2,145,Nicaragua,2,Central America & Caribbean,Granada,11.92988,-85.95602,1,3,Bombing/Explosion,14,Private Citizens & Property,145.0,Nicaragua,5,Firearms,Automatic firearm; Rifle; Grenade launchers; Bazookas,14.0,,24.0,,
5961,197802170005,1978,2,17,603,United Kingdom,8,Western Europe,Belfast,54.607712,-5.95621,1,3,Bombing/Explosion,1,Business,233.0,Northern Ireland,6,Explosives,Explosive,14.0,,25.0,,
5976,197802190002,1978,2,18,53,Cyprus,8,Western Europe,Nicosia,35.166722,33.367574,1,1,Assassination,10,Journalists & Media,60.0,Egypt,5,Firearms,No additional information available.,16.0,0.0,,0.0,
6106,197803110004,1978,3,11,97,Israel,10,Middle East & North Africa,Haifa,32.793921000000005,34.990615000000005,1,5,Hostage Taking (Barricade Incident),19,Transportation,97.0,Israel,5,Firearms,Automatic firearms,42.0,,76.0,,
6445,197806140003,1978,6,14,83,Guatemala,2,Central America & Caribbean,Guatemala City,14.622869,-90.52906800000001,1,3,Bombing/Explosion,4,Military,83.0,Guatemala,6,Explosives,Claymore mine,17.0,,7.0,,
6475,197806230001,1978,6,23,403,Rhodesia,11,Sub-Saharan Africa,Umtali,-18.966075,32.635359,1,1,Assassination,15,Religious Figures/Institutions,216.0,Great Britain,5,Firearms,Automatic firearm,12.0,,0.0,,
6607,197808130002,1978,8,13,110,Lebanon,10,Middle East & North Africa,Beirut,33.888523,35.503513,1,3,Bombing/Explosion,22,Violent Political Party,155.0,West Bank and Gaza Strip,6,Explosives,Explosive,98.0,,160.0,,
6629,197808190004,1978,8,19,94,Iran,10,Middle East & North Africa,Abadan,30.345996999999997,48.287136,1,7,Facility/Infrastructure Attack,1,Business,94.0,Iran,8,Incendiary,Incendiary,422.0,,0.0,,
6687,197809040003,1978,9,4,403,Rhodesia,11,Sub-Saharan Africa,Kariba,-16.788805,28.853973999999997,1,3,Bombing/Explosion,6,Airports & Aircraft,403.0,Rhodesia,6,Explosives,Surface to air missile,48.0,,,,
6888,197810190002,1978,10,19,205,Thailand,5,Southeast Asia,Huai Yot district,7.773489,99.62299999999999,1,2,Armed Assault,3,Police,205.0,Thailand,5,Firearms,Automatic firearm,14.0,,3.0,,
6912,197810260003,1978,10,26,65,Ethiopia,11,Sub-Saharan Africa,Asmara,15.333513,38.933652,1,2,Armed Assault,4,Military,65.0,Ethiopia,5,Firearms,Automatic firearm,25.0,,,,
6944,197811030001,1978,11,3,160,Philippines,5,Southeast Asia,Guimba,15.660564,120.76857,1,9,Unknown,1,Business,160.0,Philippines,13,Unknown,Weapons; Ambush,16.0,,,,
7057,197811300004,1978,11,30,145,Nicaragua,2,Central America & Caribbean,Achuapa,13.052294999999999,-86.58912099999999,1,2,Armed Assault,4,Military,145.0,Nicaragua,5,Firearms,Unk,34.0,,20.0,,
7256,197901000002,1979,1,0,145,Nicaragua,2,Central America & Caribbean,Unknown,12.509203999999999,-86.661108,1,3,Bombing/Explosion,1,Business,145.0,Nicaragua,6,Explosives,Explosive; Unk,13.0,,0.0,,
7345,197901140004,1979,1,14,138,Myanmar,5,Southeast Asia,Pang San,22.833333,97.466667,1,2,Armed Assault,4,Military,138.0,Myanmar,5,Firearms,Automatic firearm,11.0,,15.0,,
7349,197901140008,1979,1,14,160,Philippines,5,Southeast Asia,General Salipada K. Pendatun,6.796989,124.702591,1,2,Armed Assault,4,Military,160.0,Philippines,5,Firearms,Automatic firearm,19.0,,10.0,,
7602,197902120002,1979,2,12,403,Rhodesia,11,Sub-Saharan Africa,Kariba,-16.788805,28.853973999999997,1,3,Bombing/Explosion,6,Airports & Aircraft,403.0,Rhodesia,6,Explosives,Rocket - SAM7,54.0,,0.0,,
7878,197903200003,1979,3,20,138,Myanmar,5,Southeast Asia,Monqnawng,21.64706,98.12529,1,6,Hostage Taking (Kidnapping),4,Military,138.0,Myanmar,5,Firearms,Automatic firearm,22.0,,6.0,,
7881,197903210002,1979,3,21,145,Nicaragua,2,Central America & Caribbean,Mesas del Cacao,13.789439999999999,-86.012157,1,9,Unknown,4,Military,145.0,Nicaragua,13,Unknown,,22.0,,0.0,,
7942,197903230047,1979,3,23,137,Mozambique,11,Sub-Saharan Africa,Beira,-19.833307,34.849994,1,7,Facility/Infrastructure Attack,21,Utilities,137.0,Mozambique,8,Incendiary,Incendiary,18.0,,0.0,,
8053,197904100003,1979,4,10,137,Mozambique,11,Sub-Saharan Africa,Gorongoza,-18.682775,34.066629,1,2,Armed Assault,14,Private Citizens & Property,137.0,Mozambique,5,Firearms,Automatic firearm,16.0,,0.0,,
8267,197905040008,1979,5,4,61,El Salvador,2,Central America & Caribbean,San Salvador,13.692879999999999,-89.199161,1,3,Bombing/Explosion,15,Religious Figures/Institutions,61.0,El Salvador,5,Firearms,Unk; Explosives,19.0,,,,
8512,197905260004,1979,5,26,145,Nicaragua,2,Central America & Caribbean,Tola,11.43857,-85.93697399999999,1,2,Armed Assault,2,Government (General),145.0,Nicaragua,5,Firearms,Unk,16.0,,,,
8536,197905300003,1979,5,30,205,Thailand,5,Southeast Asia,Nam Som district,17.770278,102.189444,1,3,Bombing/Explosion,4,Military,205.0,Thailand,6,Explosives,Explosive; Automatic firearm; Rocket propelled grenades,27.0,,3.0,,
8700,197906160007,1979,6,16,200,Syria,10,Middle East & North Africa,Aleppo,36.201721,37.14352,1,3,Bombing/Explosion,4,Military,200.0,Syria,5,Firearms,Automatic firearm; Grenades,54.0,,,,
8913,197907140004,1979,7,14,160,Philippines,5,Southeast Asia,Manukan District,8.518432,123.09751999999999,1,9,Unknown,2,Government (General),160.0,Philippines,13,Unknown,Arms,12.0,,0.0,,
8987,197908000008,1979,8,0,8,Angola,11,Sub-Saharan Africa,Unknown,-5.560318,12.190405,1,2,Armed Assault,4,Military,8.0,Angola,5,Firearms,Automatic firearm,18.0,,18.0,,
9154,197908270003,1979,8,27,603,United Kingdom,8,Western Europe,Warrenpoint,54.102813,-6.259412,1,3,Bombing/Explosion,4,Military,216.0,Great Britain,6,Explosives,Land mine; Explosive,18.0,,0.0,,
9156,197908270005,1979,8,27,4,Afghanistan,6,South Asia,Ghazni,33.542621999999994,68.415329,1,3,Bombing/Explosion,19,Transportation,4.0,Afghanistan,6,Explosives,Explosive,50.0,,0.0,,
9504,197910170002,1979,10,17,61,El Salvador,2,Central America & Caribbean,San Marcos,13.658889000000002,-89.18355600000001,1,2,Armed Assault,3,Police,61.0,El Salvador,5,Firearms,Automatic firearm,11.0,,19.0,,
10104,198001270004,1980,1,27,61,El Salvador,2,Central America & Caribbean,Coatepeque,13.926371,-89.502589,1,2,Armed Assault,14,Private Citizens & Property,61.0,El Salvador,5,Firearms,Automatic firearm; Rifle; Pistol,20.0,,1.0,,
10106,198001270006,1980,1,27,208,Tunisia,10,Middle East & North Africa,Gafsa,34.429322,8.786049,1,3,Bombing/Explosion,3,Police,208.0,Tunisia,5,Firearms,Automatic firearm; Rifle; Grenades,41.0,,100.0,,
10130,198001310010,1980,1,31,83,Guatemala,2,Central America & Caribbean,Guatemala City,14.622869,-90.52906800000001,1,6,Hostage Taking (Kidnapping),7,Government (Diplomatic),185.0,Spain,8,Incendiary,Incendiary,37.0,,,,
10159,198002040004,1980,2,4,83,Guatemala,2,Central America & Caribbean,Xemal,15.48666,-90.966438,1,3,Bombing/Explosion,4,Military,83.0,Guatemala,5,Firearms,Automatic firearm; Grenade,11.0,,,,
10161,198002040007,1980,2,4,403,Rhodesia,11,Sub-Saharan Africa,Rusape,-18.537029,32.125422,1,2,Armed Assault,19,Transportation,403.0,Rhodesia,5,Firearms,Automatic firearm,16.0,,78.0,,
10250,198002180012,1980,2,18,200,Syria,10,Middle East & North Africa,Aleppo,36.201721,37.14352,1,3,Bombing/Explosion,19,Transportation,200.0,Syria,5,Firearms,Automatic firearm; Rockets,34.0,,0.0,,
10299,198002260007,1980,2,26,61,El Salvador,2,Central America & Caribbean,Santo Domingo de Guzman,13.717868,-89.798253,1,2,Armed Assault,3,Police,61.0,El Salvador,5,Firearms,Automatic firearm,15.0,,3.0,,
10353,198003070010,1980,3,7,61,El Salvador,2,Central America & Caribbean,San Salvador,13.692879999999999,-89.199161,1,1,Assassination,14,Private Citizens & Property,61.0,El Salvador,5,Firearms,Automatic firearm,12.0,,0.0,,
10354,198003070011,1980,3,7,160,Philippines,5,Southeast Asia,Zamboanga City,6.929089,122.07885,1,3,Bombing/Explosion,1,Business,160.0,Philippines,5,Firearms,Rifle; Grenades,13.0,,14.0,,
10361,198003080006,1980,3,8,61,El Salvador,2,Central America & Caribbean,Suchitoto,13.933732000000001,-89.025836,1,2,Armed Assault,14,Private Citizens & Property,61.0,El Salvador,5,Firearms,Automatic firearm,11.0,,0.0,,
10369,198003090007,1980,3,9,160,Philippines,5,Southeast Asia,Ozamiz,8.157809,123.846756,1,3,Bombing/Explosion,1,Business,160.0,Philippines,6,Explosives,Explosive; Grenade,30.0,,60.0,,
10471,198003170023,1980,3,17,61,El Salvador,2,Central America & Caribbean,Colima,14.060118,-89.134274,1,2,Armed Assault,4,Military,61.0,El Salvador,5,Firearms,Automatic firearm,28.0,,0.0,,
10515,198003240016,1980,3,24,61,El Salvador,2,Central America & Caribbean,Tacachico,13.97556,-89.34,1,2,Armed Assault,4,Military,61.0,El Salvador,5,Firearms,Automatic firearm,25.0,,0.0,,
10539,198003270008,1980,3,27,61,El Salvador,2,Central America & Caribbean,La Libertad,13.48833,-89.32222,1,2,Armed Assault,4,Military,61.0,El Salvador,5,Firearms,Automatic firearm,12.0,,0.0,,
10540,198003270009,1980,3,27,61,El Salvador,2,Central America & Caribbean,Ciudad Barrios,13.766667000000002,-88.266667,1,2,Armed Assault,4,Military,61.0,El Salvador,5,Firearms,Automatic firearm,11.0,,0.0,,
10591,198004020003,1980,4,2,61,El Salvador,2,Central America & Caribbean,El Playon,13.8136,-89.33194,1,2,Armed Assault,4,Military,61.0,El Salvador,5,Firearms,Automatic firearm,13.0,,0.0,,
10624,198004070008,1980,4,7,61,El Salvador,2,Central America & Caribbean,San Vicente,13.641210000000001,-88.785423,1,2,Armed Assault,4,Military,61.0,El Salvador,5,Firearms,Automatic firearm,16.0,,0.0,,
10644,198004100002,1980,4,10,61,El Salvador,2,Central America & Caribbean,Cojutepeque,13.716667000000001,-88.93333299999999,1,2,Armed Assault,14,Private Citizens & Property,61.0,El Salvador,5,Firearms,Automatic firearm,25.0,,0.0,,
10652,198004110001,1980,4,11,205,Thailand,5,Southeast Asia,Bangkok,13.785793,100.560852,1,3,Bombing/Explosion,1,Business,205.0,Thailand,6,Explosives,Explosive,19.0,,25.0,,
10654,198004110003,1980,4,11,61,El Salvador,2,Central America & Caribbean,Tenancingo,13.835529999999999,-88.985462,1,2,Armed Assault,14,Private Citizens & Property,61.0,El Salvador,5,Firearms,Automatic firearm,13.0,,0.0,,
10678,198004130002,1980,4,13,160,Philippines,5,Southeast Asia,Pagadian,7.825203,123.43737800000001,1,3,Bombing/Explosion,14,Private Citizens & Property,160.0,Philippines,6,Explosives,Explosive; Grenade,11.0,,100.0,,
10692,198004150008,1980,4,15,61,El Salvador,2,Central America & Caribbean,Amatepe,13.512220000000001,-89.02611,1,2,Armed Assault,4,Military,61.0,El Salvador,5,Firearms,Automatic firearm,16.0,,0.0,,
10863,198004300007,1980,4,30,61,El Salvador,2,Central America & Caribbean,Santa Ana,13.981479,-89.555717,1,2,Armed Assault,3,Police,61.0,El Salvador,5,Firearms,Automatic firearm,14.0,,2.0,,
10919,198005080002,1980,5,8,153,Pakistan,6,South Asia,Peshawar,34.006004,71.53743,1,3,Bombing/Explosion,3,Police,153.0,Pakistan,6,Explosives,Explosive,17.0,,18.0,,
10967,198005160002,1980,5,16,61,El Salvador,2,Central America & Caribbean,San Miguel,13.491242000000002,-88.17313399999999,1,2,Armed Assault,14,Private Citizens & Property,61.0,El Salvador,5,Firearms,Automatic firearm,19.0,,0.0,,
10971,198005160006,1980,5,16,61,El Salvador,2,Central America & Caribbean,El Triunfo,13.558889,-88.43,1,2,Armed Assault,4,Military,61.0,El Salvador,5,Firearms,Automatic firearm,19.0,,0.0,,
10977,198005170003,1980,5,17,61,El Salvador,2,Central America & Caribbean,El Trifinio,13.553101999999999,-88.432142,1,2,Armed Assault,4,Military,61.0,El Salvador,5,Firearms,Automatic firearm,50.0,,0.0,,
10978,198005170004,1980,5,17,61,El Salvador,2,Central America & Caribbean,Chalatenango,14.04111,-88.938568,1,2,Armed Assault,4,Military,61.0,El Salvador,5,Firearms,Automatic firearm,50.0,,0.0,,
10979,198005170005,1980,5,17,61,El Salvador,2,Central America & Caribbean,El Trifino,13.553101999999999,-88.432142,1,2,Armed Assault,4,Military,61.0,El Salvador,5,Firearms,Automatic firearm,50.0,,0.0,,
11020,198005230008,1980,5,23,61,El Salvador,2,Central America & Caribbean,Acajutla,13.592778,-89.8275,1,2,Armed Assault,4,Military,61.0,El Salvador,5,Firearms,Automatic firearm,11.0,,0.0,,
11046,198005280014,1980,5,28,61,El Salvador,2,Central America & Caribbean,San Marcos,13.658889000000002,-89.18355600000001,1,2,Armed Assault,4,Military,61.0,El Salvador,5,Firearms,Automatic firearm,11.0,,0.0,,
11056,198005300006,1980,5,30,61,El Salvador,2,Central America & Caribbean,Jucuapa,13.516667000000002,-88.383333,1,2,Armed Assault,14,Private Citizens & Property,61.0,El Salvador,5,Firearms,Automatic firearm,26.0,,0.0,,
11057,198005300007,1980,5,30,61,El Salvador,2,Central America & Caribbean,Hacienda Guajoyo,13.482291,-88.712816,1,2,Armed Assault,14,Private Citizens & Property,61.0,El Salvador,5,Firearms,Automatic firearm,20.0,,0.0,,
11087,198006020012,1980,6,2,61,El Salvador,2,Central America & Caribbean,Osicala,13.805691,-88.145787,1,2,Armed Assault,4,Military,61.0,El Salvador,5,Firearms,Automatic firearm,40.0,,100.0,,
11151,198006090012,1980,6,9,61,El Salvador,2,Central America & Caribbean,La Union,13.336944,-87.843889,1,2,Armed Assault,3,Police,61.0,El Salvador,5,Firearms,Automatic firearm,21.0,,0.0,,
11152,198006090013,1980,6,9,61,El Salvador,2,Central America & Caribbean,Sensuntepeque,13.874575,-88.627779,1,2,Armed Assault,4,Military,61.0,El Salvador,5,Firearms,Automatic firearm,18.0,,0.0,,
11284,198006240001,1980,6,24,94,Iran,10,Middle East & North Africa,Ahvaz,31.285505999999998,48.643415999999995,1,3,Bombing/Explosion,14,Private Citizens & Property,94.0,Iran,6,Explosives,Explosive,11.0,,56.0,,
11300,198006250010,1980,6,25,200,Syria,10,Middle East & North Africa,Aleppo,36.201721,37.14352,1,2,Armed Assault,2,Government (General),200.0,Syria,5,Firearms,Automatic firearm,14.0,,0.0,,
11309,198006260006,1980,6,26,61,El Salvador,2,Central America & Caribbean,San Salvador,13.692879999999999,-89.199161,1,2,Armed Assault,4,Military,61.0,El Salvador,5,Firearms,Automatic firearm,25.0,,12.0,,
11315,198006270003,1980,6,27,61,El Salvador,2,Central America & Caribbean,San Ramon,13.682638,-88.926466,1,2,Armed Assault,14,Private Citizens & Property,61.0,El Salvador,5,Firearms,Pistol,16.0,,0.0,,
11484,198007210002,1980,7,21,200,Syria,10,Middle East & North Africa,Aleppo,36.201721,37.14352,1,3,Bombing/Explosion,1,Business,200.0,Syria,6,Explosives,Explosive,11.0,,17.0,,
11529,198007270005,1980,7,27,83,Guatemala,2,Central America & Caribbean,Unknown,15.498381,-90.982067,1,9,Unknown,4,Military,83.0,Guatemala,13,Unknown,,21.0,,,,
11543,198007280012,1980,7,28,83,Guatemala,2,Central America & Caribbean,San Juan Cotzal,15.435278,-91.035556,1,2,Armed Assault,4,Military,83.0,Guatemala,5,Firearms,Automatic firearm,32.0,,6.0,,
11551,198007290007,1980,7,29,83,Guatemala,2,Central America & Caribbean,Unknown,15.498381,-90.982067,1,9,Unknown,4,Military,83.0,Guatemala,13,Unknown,,37.0,,,,
11568,198008020001,1980,8,2,98,Italy,8,Western Europe,Bologna,44.49419,11.346518,1,3,Bombing/Explosion,19,Transportation,98.0,Italy,6,Explosives,Plastic explosive; Explosive - TNT,85.0,,188.0,,
11592,198008070004,1980,8,7,61,El Salvador,2,Central America & Caribbean,Potonico,13.965554000000001,-88.892274,1,2,Armed Assault,4,Military,61.0,El Salvador,5,Firearms,Automatic firearm,47.0,,0.0,,
11596,198008080002,1980,8,8,61,El Salvador,2,Central America & Caribbean,Dulce Nombre de Maria,14.15695,-89.011475,1,2,Armed Assault,4,Military,61.0,El Salvador,5,Firearms,Automatic firearm,23.0,,0.0,,
11617,198008130001,1980,8,13,83,Guatemala,2,Central America & Caribbean,Chisec,15.812560999999999,-90.288358,1,2,Armed Assault,4,Military,83.0,Guatemala,5,Firearms,Automatic firearm,12.0,,4.0,,
11633,198008140013,1980,8,14,61,El Salvador,2,Central America & Caribbean,Miravalle,13.608665,-89.760288,1,2,Armed Assault,4,Military,61.0,El Salvador,5,Firearms,Automatic firearm,16.0,,12.0,,
11636,198008150003,1980,8,15,61,El Salvador,2,Central America & Caribbean,Suchitoto,13.933732000000001,-89.025836,1,2,Armed Assault,4,Military,61.0,El Salvador,5,Firearms,Automatic firearm,300.0,,0.0,,
11642,198008160003,1980,8,16,61,El Salvador,2,Central America & Caribbean,Aguilares,13.957222,-89.189722,1,2,Armed Assault,1,Business,61.0,El Salvador,5,Firearms,Automatic firearm,35.0,,0.0,,
11682,198008210009,1980,8,21,61,El Salvador,2,Central America & Caribbean,Olomega,13.311110000000001,-88.02667,1,2,Armed Assault,4,Military,61.0,El Salvador,5,Firearms,Automatic firearm,17.0,,0.0,,
11726,198008270004,1980,8,27,61,El Salvador,2,Central America & Caribbean,San Salvador,13.692879999999999,-89.199161,1,2,Armed Assault,21,Utilities,61.0,El Salvador,5,Firearms,Automatic firearm,25.0,,0.0,,
11802,198009090001,1980,9,9,61,El Salvador,2,Central America & Caribbean,San Pedro Perulapan,13.786461,-89.045407,1,2,Armed Assault,14,Private Citizens & Property,61.0,El Salvador,5,Firearms,Automatic firearm,60.0,,0.0,,
11814,198009110013,1980,9,11,61,El Salvador,2,Central America & Caribbean,San Martin,13.738762,-89.054916,1,2,Armed Assault,14,Private Citizens & Property,61.0,El Salvador,5,Firearms,Automatic firearm,20.0,,0.0,,
11856,198009130004,1980,9,13,61,El Salvador,2,Central America & Caribbean,Apopa,13.798329999999998,-89.17889,1,2,Armed Assault,20,Unknown,61.0,El Salvador,5,Firearms,Firearm; Burned,11.0,,0.0,,
11889,198009180008,1980,9,18,61,El Salvador,2,Central America & Caribbean,El Moral,13.3825,-88.18333299999999,1,2,Armed Assault,4,Military,61.0,El Salvador,5,Firearms,Automatic firearm,24.0,,6.0,,
11920,198009220007,1980,9,22,61,El Salvador,2,Central America & Caribbean,Santa Ana,13.981479,-89.555717,1,2,Armed Assault,4,Military,61.0,El Salvador,5,Firearms,Automatic firearm,11.0,,1.0,,
11927,198009230005,1980,9,23,61,El Salvador,2,Central America & Caribbean,Guadalupe,13.617851000000002,-88.880287,1,2,Armed Assault,4,Military,61.0,El Salvador,5,Firearms,Automatic firearm,15.0,,0.0,,
11929,198009240001,1980,9,24,61,El Salvador,2,Central America & Caribbean,San Miguel,13.491242000000002,-88.17313399999999,1,2,Armed Assault,20,Unknown,61.0,El Salvador,5,Firearms,Automatic firearm,14.0,,0.0,,
11934,198009260002,1980,9,26,362,West Germany (FRG),8,Western Europe,Munich,48.139126,11.580186,1,3,Bombing/Explosion,20,Unknown,362.0,West Germany (FRG),6,Explosives,Explosive,13.0,,215.0,,
11986,198010030006,1980,10,3,61,El Salvador,2,Central America & Caribbean,San Salvador,13.692879999999999,-89.199161,1,2,Armed Assault,3,Police,61.0,El Salvador,5,Firearms,Automatic firearm,15.0,,0.0,,
12021,198010060007,1980,10,6,61,El Salvador,2,Central America & Caribbean,Ilobasco,13.85,-88.85,1,2,Armed Assault,3,Police,61.0,El Salvador,5,Firearms,Automatic firearm,14.0,,0.0,,
12045,198010080012,1980,10,8,61,El Salvador,2,Central America & Caribbean,Canton Santa Rita,13.95,-89.766667,1,2,Armed Assault,4,Military,61.0,El Salvador,5,Firearms,Automatic firearm,13.0,,0.0,,
12050,198010090005,1980,10,9,61,El Salvador,2,Central America & Caribbean,Dulce Nombre de Maria,14.15695,-89.011475,1,2,Armed Assault,14,Private Citizens & Property,61.0,El Salvador,5,Firearms,Automatic firearm,13.0,,0.0,,
12092,198010140012,1980,10,14,61,El Salvador,2,Central America & Caribbean,San Vicente,13.641210000000001,-88.785423,1,2,Armed Assault,4,Military,61.0,El Salvador,5,Firearms,Automatic firearm,54.0,,0.0,,
12101,198010150007,1980,10,15,61,El Salvador,2,Central America & Caribbean,Verapaz,13.64385,-88.870694,1,2,Armed Assault,4,Military,61.0,El Salvador,5,Firearms,Automatic firearm,40.0,,0.0,,
12109,198010170005,1980,10,17,83,Guatemala,2,Central America & Caribbean,Guatemala City,14.622869,-90.52906800000001,1,2,Armed Assault,3,Police,83.0,Guatemala,5,Firearms,Automatic firearm,11.0,,0.0,,
12110,198010180001,1980,10,18,61,El Salvador,2,Central America & Caribbean,San Agustin,13.432039999999999,-88.592239,1,9,Unknown,3,Police,61.0,El Salvador,13,Unknown,,58.0,,,,
12171,198010290004,1980,10,29,61,El Salvador,2,Central America & Caribbean,Sitio Viejo,13.45,-88.88333,1,2,Armed Assault,4,Military,61.0,El Salvador,5,Firearms,Automatic firearm,16.0,,0.0,,
12247,198011060005,1980,11,6,61,El Salvador,2,Central America & Caribbean,San Salvador,13.692879999999999,-89.199161,1,2,Armed Assault,4,Military,61.0,El Salvador,5,Firearms,Automatic firearm,20.0,,0.0,,
12249,198011060007,1980,11,6,61,El Salvador,2,Central America & Caribbean,Santa Ana,13.981479,-89.555717,1,3,Bombing/Explosion,4,Military,61.0,El Salvador,5,Firearms,Automatic firearm; Grenades,11.0,,0.0,,
12260,198011070009,1980,11,7,61,El Salvador,2,Central America & Caribbean,San Salvador,13.692879999999999,-89.199161,1,2,Armed Assault,3,Police,61.0,El Salvador,5,Firearms,Automatic firearm,15.0,,0.0,,
12265,198011090001,1980,11,9,110,Lebanon,10,Middle East & North Africa,Beirut,33.888523,35.503513,1,3,Bombing/Explosion,14,Private Citizens & Property,110.0,Lebanon,6,Explosives,Explosive,14.0,,22.0,,
12271,198011100003,1980,11,10,110,Lebanon,10,Middle East & North Africa,Beirut,33.888523,35.503513,1,3,Bombing/Explosion,2,Government (General),110.0,Lebanon,6,Explosives,Explosive,12.0,,0.0,,
12326,198011180002,1980,11,18,83,Guatemala,2,Central America & Caribbean,San Juan Ostuncalco,14.868735999999998,-91.621346,1,2,Armed Assault,14,Private Citizens & Property,83.0,Guatemala,5,Firearms,Automatic firearm,11.0,,0.0,,
12357,198011210014,1980,11,21,61,El Salvador,2,Central America & Caribbean,Zacatecoluca,13.5,-88.866667,1,2,Armed Assault,4,Military,61.0,El Salvador,5,Firearms,Automatic firearm,11.0,,0.0,,
12385,198011250004,1980,11,25,61,El Salvador,2,Central America & Caribbean,San Roque,13.749722,-89.229722,1,2,Armed Assault,4,Military,61.0,El Salvador,5,Firearms,Automatic firearm,22.0,,0.0,,
12457,198012110003,1980,12,11,83,Guatemala,2,Central America & Caribbean,San Marcos,14.965260999999998,-91.795813,1,2,Armed Assault,4,Military,83.0,Guatemala,5,Firearms,Automatic firearm,18.0,,,,
12508,198012180002,1980,12,18,61,El Salvador,2,Central America & Caribbean,Berlin,13.49446,-88.530343,1,2,Armed Assault,4,Military,61.0,El Salvador,5,Firearms,Automatic firearm,37.0,,,,
12509,198012180003,1980,12,18,61,El Salvador,2,Central America & Caribbean,Berlin,13.49446,-88.530343,1,2,Armed Assault,4,Military,61.0,El Salvador,5,Firearms,Automatic firearm,50.0,,,,
12573,198012310002,1980,12,31,104,Kenya,11,Sub-Saharan Africa,Nairobi,-1.28518,36.821107,1,3,Bombing/Explosion,1,Business,104.0,Kenya,6,Explosives,Explosive,15.0,,85.0,,
12611,198101050002,1981,1,5,200,Syria,10,Middle East & North Africa,Homs,34.717705,36.722823999999996,1,3,Bombing/Explosion,4,Military,200.0,Syria,6,Explosives,Explosive,16.0,,0.0,,
12627,198101080009,1981,1,8,61,El Salvador,2,Central America & Caribbean,Armenia,13.743610999999998,-89.498889,1,2,Armed Assault,4,Military,61.0,El Salvador,5,Firearms,Automatic firearm,50.0,,0.0,,
12636,198101090006,1981,1,9,61,El Salvador,2,Central America & Caribbean,Delgado,13.724167000000001,-89.17277800000001,1,2,Armed Assault,4,Military,61.0,El Salvador,5,Firearms,Automatic firearm,27.0,,0.0,,
12644,198101110003,1981,1,11,61,El Salvador,2,Central America & Caribbean,San Esteban Catarina,13.685154999999998,-88.787642,1,2,Armed Assault,4,Military,61.0,El Salvador,5,Firearms,Automatic firearm,25.0,,0.0,,
12645,198101110004,1981,1,11,61,El Salvador,2,Central America & Caribbean,Chalchuapa,13.986667,-89.681111,1,2,Armed Assault,4,Military,61.0,El Salvador,5,Firearms,Automatic firearm,40.0,,0.0,,
12673,198101170001,1981,1,17,61,El Salvador,2,Central America & Caribbean,Albornoz Arriba,13.582486,-87.94546,1,2,Armed Assault,4,Military,61.0,El Salvador,5,Firearms,Automatic firearm,87.0,,0.0,,
12693,198101200003,1981,1,20,61,El Salvador,2,Central America & Caribbean,Santa Ana,13.981479,-89.555717,1,2,Armed Assault,4,Military,61.0,El Salvador,5,Firearms,Automatic firearm,12.0,,0.0,,
12694,198101200004,1981,1,20,61,El Salvador,2,Central America & Caribbean,El Paisnal,13.973610999999998,-89.218611,1,2,Armed Assault,4,Military,61.0,El Salvador,5,Firearms,Automatic firearm,17.0,,0.0,,
12831,198102050009,1981,2,5,61,El Salvador,2,Central America & Caribbean,Conchagua,13.3,-87.866667,1,2,Armed Assault,14,Private Citizens & Property,61.0,El Salvador,5,Firearms,Automatic firearm,45.0,,0.0,,
12833,198102050011,1981,2,5,61,El Salvador,2,Central America & Caribbean,Unknown,13.447063,-88.556531,1,3,Bombing/Explosion,19,Transportation,61.0,El Salvador,6,Explosives,Explosive,22.0,,0.0,,
12864,198102080005,1981,2,8,83,Guatemala,2,Central America & Caribbean,Chicacao,14.533332999999999,-91.31666700000001,1,2,Armed Assault,3,Police,83.0,Guatemala,5,Firearms,Automatic firearm,11.0,,15.0,,
12882,198102090016,1981,2,9,61,El Salvador,2,Central America & Caribbean,La Bermuda,13.871448999999998,-89.037439,1,3,Bombing/Explosion,19,Transportation,61.0,El Salvador,5,Firearms,Automatic firearms; Mortars; Grenades; Automatic firearm,18.0,,23.0,,
12883,198102090017,1981,2,9,61,El Salvador,2,Central America & Caribbean,Bermuda,13.871389,-89.375,1,3,Bombing/Explosion,1,Business,61.0,El Salvador,6,Explosives,Explosives; Contact bomb,18.0,,24.0,,
12885,198102100001,1981,2,10,160,Philippines,5,Southeast Asia,Unknown,8.057028,123.791362,1,9,Unknown,1,Business,160.0,Philippines,13,Unknown,,20.0,,0.0,,
12896,198102100012,1981,2,10,83,Guatemala,2,Central America & Caribbean,Comalpa,14.736569,-90.89001800000001,1,2,Armed Assault,4,Military,83.0,Guatemala,5,Firearms,Automatic firearm,18.0,,10.0,,
12951,198102190010,1981,2,19,160,Philippines,5,Southeast Asia,Sumisip,6.41871,121.972443,1,3,Bombing/Explosion,1,Business,217.0,United States,6,Explosives,Land mine,16.0,,4.0,,
12958,198102200008,1981,2,20,205,Thailand,5,Southeast Asia,Bannang Sata district,6.242799,101.297732,1,2,Armed Assault,19,Transportation,205.0,Thailand,5,Firearms,Rifles; Robbery,14.0,,11.0,,
12964,198102220003,1981,2,22,61,El Salvador,2,Central America & Caribbean,San Nicolas Lempa,13.433333,-88.7,1,2,Armed Assault,4,Military,61.0,El Salvador,5,Firearms,Automatic firearm,50.0,,0.0,,
12989,198102270008,1981,2,27,61,El Salvador,2,Central America & Caribbean,San Lorenzo,13.703735,-88.80456600000001,1,2,Armed Assault,4,Military,61.0,El Salvador,5,Firearms,Automatic firearm,45.0,,0.0,,
12998,198102280006,1981,2,28,200,Syria,10,Middle East & North Africa,Jisr Ash-Shughur,35.813396000000004,36.319939,1,3,Bombing/Explosion,19,Transportation,200.0,Syria,5,Firearms,Automatic firearm; Explosives,25.0,,0.0,,
13019,198103020007,1981,3,2,61,El Salvador,2,Central America & Caribbean,San Sebastian,13.723215,-88.819097,1,2,Armed Assault,4,Military,61.0,El Salvador,5,Firearms,Automatic firearm,40.0,,0.0,,
13025,198103030007,1981,3,3,61,El Salvador,2,Central America & Caribbean,San Vicente,13.641210000000001,-88.785423,1,2,Armed Assault,4,Military,61.0,El Salvador,5,Firearms,Automatic firearm,60.0,,0.0,,
13046,198103060008,1981,3,6,61,El Salvador,2,Central America & Caribbean,San Antonio de Los Ranchos,14.004417000000002,-88.895512,1,2,Armed Assault,4,Military,61.0,El Salvador,5,Firearms,Automatic firearm,38.0,,0.0,,
13057,198103080003,1981,3,8,61,El Salvador,2,Central America & Caribbean,San Lorenzo,13.703735,-88.80456600000001,1,2,Armed Assault,14,Private Citizens & Property,61.0,El Salvador,5,Firearms,Automatic firearm,100.0,,0.0,,
13115,198103170005,1981,3,17,45,Colombia,3,South America,Unknown,0.43595100000000003,-75.52767,1,2,Armed Assault,4,Military,45.0,Colombia,5,Firearms,Automatic firearm,20.0,0.0,0.0,0.0,
13132,198103190006,1981,3,19,83,Guatemala,2,Central America & Caribbean,Unknown,14.563479000000001,-90.982067,1,2,Armed Assault,4,Military,83.0,Guatemala,5,Firearms,Automatic firearm,16.0,,0.0,,
13147,198103230002,1981,3,23,83,Guatemala,2,Central America & Caribbean,San Martin Jilotepeque,14.781398000000001,-90.792513,1,2,Armed Assault,3,Police,83.0,Guatemala,5,Firearms,Automatic firearm,15.0,,0.0,,
13190,198103290005,1981,3,29,61,El Salvador,2,Central America & Caribbean,Villa Victoria,13.95,-88.633333,1,2,Armed Assault,4,Military,61.0,El Salvador,5,Firearms,Automatic firearm,14.0,,12.0,,
13246,198104030010,1981,4,3,61,El Salvador,2,Central America & Caribbean,Metapan,14.331414,-89.44239300000001,1,2,Armed Assault,4,Military,61.0,El Salvador,5,Firearms,Automatic firearm,15.0,,0.0,,
13271,198104090003,1981,4,9,61,El Salvador,2,Central America & Caribbean,Soyapango,13.701964000000002,-89.147774,1,2,Armed Assault,3,Police,61.0,El Salvador,5,Firearms,Automatic firearm,23.0,,0.0,,
13275,198104110001,1981,4,11,83,Guatemala,2,Central America & Caribbean,Chuabajito,14.9,-90.8,1,2,Armed Assault,14,Private Citizens & Property,83.0,Guatemala,5,Firearms,Automatic firearm,24.0,,0.0,,
13293,198104140007,1981,4,14,83,Guatemala,2,Central America & Caribbean,Unknown,15.498381,-90.982067,1,2,Armed Assault,4,Military,83.0,Guatemala,5,Firearms,Automatic firearm,29.0,,0.0,,
13326,198104200004,1981,4,20,160,Philippines,5,Southeast Asia,Davao City,7.083241,125.600998,1,3,Bombing/Explosion,15,Religious Figures/Institutions,160.0,Philippines,6,Explosives,Grenade,13.0,,161.0,,
13430,198105010015,1981,5,1,83,Guatemala,2,Central America & Caribbean,Unknown,15.498381,-90.982067,1,2,Armed Assault,4,Military,83.0,Guatemala,5,Firearms,Automatic firearm,16.0,,0.0,,
13515,198105100003,1981,5,10,213,Uganda,11,Sub-Saharan Africa,Kawanda,0.422329,32.541517,1,3,Bombing/Explosion,4,Military,213.0,Uganda,6,Explosives,Grenades; Automatic rifles; Ambushed,34.0,,0.0,,
13539,198105150006,1981,5,15,83,Guatemala,2,Central America & Caribbean,Colomba,14.707704999999999,-91.731829,1,2,Armed Assault,4,Military,83.0,Guatemala,5,Firearms,Automatic firearm,11.0,,17.0,,
13540,198105150007,1981,5,15,145,Nicaragua,2,Central America & Caribbean,Jalapa,13.922245000000002,-86.125393,1,2,Armed Assault,4,Military,145.0,Nicaragua,5,Firearms,Automatic firearm,18.0,,0.0,,
13650,198106010013,1981,6,1,83,Guatemala,2,Central America & Caribbean,San Mateo Ixtatan,15.830597000000001,-91.476114,1,2,Armed Assault,14,Private Citizens & Property,83.0,Guatemala,13,Unknown,Raid; Automatic firearm,36.0,,5.0,,
13685,198106060007,1981,6,6,83,Guatemala,2,Central America & Caribbean,Ixtan,14.316667,-91.9,1,9,Unknown,4,Military,83.0,Guatemala,13,Unknown,,100.0,,0.0,,
13687,198106070001,1981,6,7,61,El Salvador,2,Central America & Caribbean,Zacatecoluca,13.5,-88.866667,1,2,Armed Assault,4,Military,61.0,El Salvador,5,Firearms,Automatic firearm,27.0,,0.0,,
13702,198106100006,1981,6,10,61,El Salvador,2,Central America & Caribbean,Arcatao,14.091942999999999,-88.747054,1,2,Armed Assault,4,Military,61.0,El Salvador,5,Firearms,Automatic firearm,14.0,,14.0,,
13707,198106110004,1981,6,11,61,El Salvador,2,Central America & Caribbean,Arcatao,14.091942999999999,-88.747054,1,3,Bombing/Explosion,4,Military,61.0,El Salvador,5,Firearms,Automatic firearm; Rocket,30.0,,0.0,,
13778,198106250004,1981,6,25,61,El Salvador,2,Central America & Caribbean,Amatitan Abajo,13.766667000000002,-88.716667,1,2,Armed Assault,4,Military,61.0,El Salvador,5,Firearms,Automatic firearm,30.0,,15.0,,
13801,198106280003,1981,6,28,94,Iran,10,Middle East & North Africa,Tehran,35.724533,51.405190000000005,1,3,Bombing/Explosion,2,Government (General),94.0,Iran,6,Explosives,Explosive,74.0,,0.0,,
13806,198106290004,1981,6,29,83,Guatemala,2,Central America & Caribbean,Genova,14.616667000000001,-91.833333,1,2,Armed Assault,4,Military,83.0,Guatemala,5,Firearms,Automatic firearm,11.0,,0.0,,
13855,198107110002,1981,7,11,83,Guatemala,2,Central America & Caribbean,Guatemala City,14.622869,-90.52906800000001,1,2,Armed Assault,3,Police,83.0,Guatemala,5,Firearms,Automatic firearm,14.0,,1.0,,
13857,198107120001,1981,7,12,83,Guatemala,2,Central America & Caribbean,Unknown,16.912032999999997,-90.299578,1,2,Armed Assault,4,Military,83.0,Guatemala,5,Firearms,Automatic firearm,50.0,,0.0,,
13858,198107120002,1981,7,12,83,Guatemala,2,Central America & Caribbean,Guatemala City,14.622869,-90.52906800000001,1,2,Armed Assault,4,Military,83.0,Guatemala,5,Firearms,Automatic firearm,16.0,,0.0,,
13859,198107120003,1981,7,12,83,Guatemala,2,Central America & Caribbean,Guatemala City,14.622869,-90.52906800000001,1,2,Armed Assault,4,Military,83.0,Guatemala,5,Firearms,Automatic firearm,17.0,,0.0,,
13864,198107130005,1981,7,13,45,Colombia,3,South America,Santa Ana,9.32211,-74.57168,1,2,Armed Assault,4,Military,45.0,Colombia,5,Firearms,Automatic firearm,21.0,,0.0,,
13890,198107150012,1981,7,15,45,Colombia,3,South America,Unknown,0.869892,-73.84190600000001,1,2,Armed Assault,4,Military,45.0,Colombia,5,Firearms,Automatic firearm,19.0,,0.0,,
13891,198107150013,1981,7,15,45,Colombia,3,South America,Unknown,0.869892,-73.84190600000001,1,2,Armed Assault,4,Military,45.0,Colombia,5,Firearms,Automatic firearm,23.0,,0.0,,
13892,198107150014,1981,7,15,45,Colombia,3,South America,Florencia district,1.61456,-75.6053,1,9,Unknown,4,Military,45.0,Colombia,13,Unknown,Ambush,11.0,,0.0,,
13893,198107150015,1981,7,15,45,Colombia,3,South America,Florencia district,1.61456,-75.6053,1,9,Unknown,4,Military,45.0,Colombia,13,Unknown,Ambush,12.0,,0.0,,
13913,198107190007,1981,7,19,83,Guatemala,2,Central America & Caribbean,Coya,15.7,-91.666667,1,2,Armed Assault,4,Military,83.0,Guatemala,5,Firearms,Automatic firearm,25.0,,0.0,,
13965,198107260005,1981,7,26,61,El Salvador,2,Central America & Caribbean,Hacienda Guajoyo,13.482291,-88.712816,1,3,Bombing/Explosion,1,Business,61.0,El Salvador,5,Firearms,Automatic firearm; Grenade launchers,21.0,,,,
14031,198108030004,1981,8,3,94,Iran,10,Middle East & North Africa,Kermanshah,34.267394,47.11118,1,3,Bombing/Explosion,14,Private Citizens & Property,94.0,Iran,6,Explosives,Explosive,13.0,,0.0,,
14107,198108120006,1981,8,12,83,Guatemala,2,Central America & Caribbean,Zacualpa,15.083154,-90.833301,1,2,Armed Assault,4,Military,83.0,Guatemala,5,Firearms,Automatic firearm,35.0,,0.0,,
14143,198108160007,1981,8,16,83,Guatemala,2,Central America & Caribbean,Chicabracan,15.0,-91.1,1,2,Armed Assault,4,Military,83.0,Guatemala,5,Firearms,Automatic firearm,16.0,,0.0,,
14145,198108160009,1981,8,16,83,Guatemala,2,Central America & Caribbean,San Sebastian Lemoa,14.992876999999998,-91.12274000000001,1,2,Armed Assault,4,Military,83.0,Guatemala,5,Firearms,Automatic firearm,11.0,,0.0,,
14177,198108200001,1981,8,20,83,Guatemala,2,Central America & Caribbean,Unknown,15.587991,-91.676069,1,2,Armed Assault,14,Private Citizens & Property,83.0,Guatemala,5,Firearms,Automatic firearm,15.0,,0.0,,
14184,198108200008,1981,8,20,61,El Salvador,2,Central America & Caribbean,Curaren,13.8,-88.583333,1,2,Armed Assault,19,Transportation,61.0,El Salvador,5,Firearms,Automatic firearm,20.0,,15.0,,
14197,198108240003,1981,8,24,83,Guatemala,2,Central America & Caribbean,Unknown,15.498381,-90.982067,1,2,Armed Assault,14,Private Citizens & Property,83.0,Guatemala,5,Firearms,Automatic firearm,11.0,,0.0,,
14246,198108270030,1981,8,27,83,Guatemala,2,Central America & Caribbean,Unknown,15.498381,-90.982067,1,2,Armed Assault,4,Military,83.0,Guatemala,5,Firearms,Automatic firearm,34.0,,0.0,,
14282,198109010008,1981,9,1,94,Iran,10,Middle East & North Africa,Tehran,35.724533,51.405190000000005,1,2,Armed Assault,3,Police,94.0,Iran,5,Firearms,Automatic rifles,20.0,,7.0,,
14296,198109030008,1981,9,3,200,Syria,10,Middle East & North Africa,Damascus,33.515244,36.292084,1,3,Bombing/Explosion,4,Military,200.0,Syria,6,Explosives,Explosive,20.0,,50.0,,
14328,198109100002,1981,9,10,61,El Salvador,2,Central America & Caribbean,El Aceituno,13.483037,-88.683755,1,2,Armed Assault,4,Military,61.0,El Salvador,5,Firearms,Automatic firearm,21.0,,0.0,,
14341,198109110004,1981,9,11,61,El Salvador,2,Central America & Caribbean,Sensuntepeque,13.874575,-88.627779,1,2,Armed Assault,4,Military,61.0,El Salvador,5,Firearms,Automatic firearm,11.0,,1.0,,
14350,198109130001,1981,9,13,83,Guatemala,2,Central America & Caribbean,El Rancho,14.913889000000001,-90.7778,1,2,Armed Assault,14,Private Citizens & Property,83.0,Guatemala,5,Firearms,Pistol,32.0,,0.0,,
14356,198109140002,1981,9,14,83,Guatemala,2,Central America & Caribbean,Rabinal,15.0845,-90.48893000000001,1,2,Armed Assault,14,Private Citizens & Property,83.0,Guatemala,5,Firearms,Pistol,14.0,,0.0,,
14376,198109170002,1981,9,17,110,Lebanon,10,Middle East & North Africa,Sidon,33.550434,35.370964,1,3,Bombing/Explosion,17,Terrorists/Non-State Militia,155.0,West Bank and Gaza Strip,6,Explosives,Car bomb - 600 lb,23.0,,90.0,,
14427,198109270001,1981,9,27,83,Guatemala,2,Central America & Caribbean,Nimacabaj,15.116667000000001,-90.516667,1,2,Armed Assault,14,Private Citizens & Property,83.0,Guatemala,5,Firearms,Automatic firearm,11.0,,0.0,,
14431,198109270006,1981,9,27,83,Guatemala,2,Central America & Caribbean,Unknown,15.07875,-90.412518,1,2,Armed Assault,14,Private Citizens & Property,83.0,Guatemala,5,Firearms,Pistol,31.0,,0.0,,
14432,198109270007,1981,9,27,83,Guatemala,2,Central America & Caribbean,Unknown,15.498381,-90.982067,1,2,Armed Assault,14,Private Citizens & Property,83.0,Guatemala,5,Firearms,Pistol,24.0,,0.0,,
14448,198109290004,1981,9,29,83,Guatemala,2,Central America & Caribbean,Agua Tibia,14.566667,-89.56666700000001,1,2,Armed Assault,4,Military,83.0,Guatemala,5,Firearms,Automatic firearm,30.0,,0.0,,
14449,198109290005,1981,9,29,83,Guatemala,2,Central America & Caribbean,San Miguel Chicaj,15.093394,-90.396028,1,2,Armed Assault,14,Private Citizens & Property,83.0,Guatemala,5,Firearms,Automatic firearm,14.0,,30.0,,
14461,198110010003,1981,10,1,110,Lebanon,10,Middle East & North Africa,Beirut,33.888523,35.503513,1,3,Bombing/Explosion,3,Police,155.0,West Bank and Gaza Strip,6,Explosives,Car bomb,83.0,,300.0,,
14497,198110070003,1981,10,7,60,Egypt,10,Middle East & North Africa,Asyut,27.181122,31.179426,1,3,Bombing/Explosion,3,Police,60.0,Egypt,5,Firearms,AK-47; Grenades,54.0,,0.0,,
14581,198110190015,1981,10,19,61,El Salvador,2,Central America & Caribbean,Unknown,13.488644,-87.894245,1,2,Armed Assault,4,Military,61.0,El Salvador,5,Firearms,Automatic firearm,19.0,,0.0,,
14582,198110190016,1981,10,19,61,El Salvador,2,Central America & Caribbean,Unknown,13.488644,-87.894245,1,2,Armed Assault,4,Military,61.0,El Salvador,5,Firearms,Automatic firearm,20.0,,0.0,,
14676,198110270002,1981,10,27,94,Iran,10,Middle East & North Africa,Mahabad,36.7652,45.722417,1,3,Bombing/Explosion,1,Business,94.0,Iran,6,Explosives,Rocket propelled grenade - RPG-7; Grenade launchers; Other weapons,14.0,,4.0,,
14687,198110280010,1981,10,28,83,Guatemala,2,Central America & Caribbean,Solola,14.77312,-91.183037,1,3,Bombing/Explosion,14,Private Citizens & Property,83.0,Guatemala,5,Firearms,Automatic firearm,24.0,,0.0,,
14688,198110280011,1981,10,28,83,Guatemala,2,Central America & Caribbean,Mazatenango,14.533332999999999,-91.5,1,2,Armed Assault,14,Private Citizens & Property,83.0,Guatemala,5,Firearms,Automatic firearm,15.0,,0.0,,
14735,198111090007,1981,11,9,45,Colombia,3,South America,Unknown,0.869892,-73.84190600000001,1,2,Armed Assault,4,Military,45.0,Colombia,5,Firearms,Automatic firearm,19.0,,0.0,,
14774,198111130009,1981,11,13,83,Guatemala,2,Central America & Caribbean,Joyabaj,14.995,-90.8075,1,2,Armed Assault,14,Private Citizens & Property,83.0,Guatemala,5,Firearms,Automatic firearm,23.0,0.0,0.0,0.0,
14886,198111290003,1981,11,29,200,Syria,10,Middle East & North Africa,Aleppo,36.201721,37.14352,1,3,Bombing/Explosion,14,Private Citizens & Property,200.0,Syria,6,Explosives,Explosive,90.0,,135.0,,
14888,198111290005,1981,11,29,61,El Salvador,2,Central America & Caribbean,San Miguel,13.491242000000002,-88.17313399999999,1,2,Armed Assault,4,Military,61.0,El Salvador,5,Firearms,Automatic firearm,30.0,,0.0,,
14904,198112010006,1981,12,1,83,Guatemala,2,Central America & Caribbean,Unknown,14.563479000000001,-90.982067,1,2,Armed Assault,4,Military,83.0,Guatemala,5,Firearms,Automatic firearm,70.0,,0.0,,
14905,198112010007,1981,12,1,83,Guatemala,2,Central America & Caribbean,Chupol,14.85,-91.05,1,2,Armed Assault,4,Military,83.0,Guatemala,5,Firearms,Automatic firearm,13.0,,0.0,,
14947,198112060004,1981,12,6,83,Guatemala,2,Central America & Caribbean,Unknown,14.563479000000001,-90.982067,1,2,Armed Assault,4,Military,83.0,Guatemala,5,Firearms,Automatic firearm,32.0,,0.0,,
14978,198112090002,1981,12,9,45,Colombia,3,South America,Unknown,0.869892,-73.84190600000001,1,2,Armed Assault,4,Military,45.0,Colombia,5,Firearms,Automatic firearm,20.0,,0.0,,
14987,198112090011,1981,12,9,145,Nicaragua,2,Central America & Caribbean,Between Pancawas and Raiti,13.091683,-86.000314,1,2,Armed Assault,4,Military,145.0,Nicaragua,5,Firearms,Automatic firearm,16.0,,1.0,,
15013,198112130010,1981,12,13,61,El Salvador,2,Central America & Caribbean,Perquin,13.949826000000002,-88.146348,1,2,Armed Assault,4,Military,61.0,El Salvador,5,Firearms,Automatic firearm,40.0,,0.0,,
15021,198112140005,1981,12,14,61,El Salvador,2,Central America & Caribbean,Usulutan,13.344322,-88.437463,1,2,Armed Assault,4,Military,61.0,El Salvador,5,Firearms,Automatic firearm,12.0,,5.0,,
15030,198112150003,1981,12,15,110,Lebanon,10,Middle East & North Africa,Beirut,33.888523,35.503513,1,3,Bombing/Explosion,7,Government (Diplomatic),95.0,Iraq,6,Explosives,Explosive,66.0,,100.0,,
15050,198112160011,1981,12,16,61,El Salvador,2,Central America & Caribbean,Hacienda Guajoyo,13.482291,-88.712816,1,2,Armed Assault,4,Military,61.0,El Salvador,5,Firearms,Automatic firearm,12.0,,0.0,,
15065,198112190003,1981,12,19,110,Lebanon,10,Middle East & North Africa,Beirut,33.888523,35.503513,1,3,Bombing/Explosion,14,Private Citizens & Property,110.0,Lebanon,6,Explosives,Explosive,11.0,,15.0,,
15087,198112220002,1981,12,22,61,El Salvador,2,Central America & Caribbean,Torola,13.916667000000002,-88.233333,1,1,Assassination,2,Government (General),61.0,El Salvador,5,Firearms,Automatic firearm,11.0,,0.0,,
15090,198112220005,1981,12,22,145,Nicaragua,2,Central America & Caribbean,San Carlos,11.1236,-84.77795,1,2,Armed Assault,4,Military,145.0,Nicaragua,5,Firearms,Automatic firearm,15.0,,0.0,,
15243,198201100005,1982,1,10,83,Guatemala,2,Central America & Caribbean,San Pedro Sacatepequez,14.968329999999998,-91.77949699999999,1,2,Armed Assault,14,Private Citizens & Property,83.0,Guatemala,5,Firearms,Automatic firearm,38.0,,0.0,,
15244,198201100006,1982,1,10,83,Guatemala,2,Central America & Caribbean,San Cristobal Cucho,14.90499,-91.781806,1,2,Armed Assault,14,Private Citizens & Property,83.0,Guatemala,5,Firearms,Automatic firearm,12.0,,0.0,,
15246,198201100008,1982,1,10,61,El Salvador,2,Central America & Caribbean,Unknown,13.6,-88.85,1,2,Armed Assault,4,Military,61.0,El Salvador,5,Firearms,Automatic firearm,48.0,,0.0,,
15255,198201110009,1982,1,11,83,Guatemala,2,Central America & Caribbean,Unknown,15.498381,-90.982067,1,2,Armed Assault,4,Military,83.0,Guatemala,5,Firearms,Automatic firearm,24.0,,0.0,,
15265,198201120009,1982,1,12,83,Guatemala,2,Central America & Caribbean,Las Cruces,16.658397,-90.29488,1,9,Unknown,14,Private Citizens & Property,83.0,Guatemala,13,Unknown,,12.0,,0.0,,
15272,198201130004,1982,1,13,83,Guatemala,2,Central America & Caribbean,Xesic,15.058648999999999,-91.155218,1,2,Armed Assault,4,Military,83.0,Guatemala,5,Firearms,Automatic firearm,42.0,,0.0,,
15299,198201170011,1982,1,17,83,Guatemala,2,Central America & Caribbean,San Juan Comalapa,14.740313,-90.886905,1,2,Armed Assault,4,Military,83.0,Guatemala,5,Firearms,Automatic firearm,23.0,,0.0,,
15300,198201170012,1982,1,17,83,Guatemala,2,Central America & Caribbean,San Pedro Jocopilas,15.095278,-91.15083299999999,1,2,Armed Assault,4,Military,83.0,Guatemala,5,Firearms,Automatic firearm,18.0,,0.0,,
15301,198201170013,1982,1,17,83,Guatemala,2,Central America & Caribbean,Xesic,15.058648999999999,-91.155218,1,2,Armed Assault,4,Military,83.0,Guatemala,5,Firearms,Automatic firearm,24.0,,0.0,,
15326,198201190011,1982,1,19,83,Guatemala,2,Central America & Caribbean,San Juan Cotzal,15.435278,-91.035556,1,2,Armed Assault,4,Military,83.0,Guatemala,5,Firearms,Automatic firearm,15.0,,0.0,,
15336,198201210003,1982,1,21,83,Guatemala,2,Central America & Caribbean,Guatemala City,14.622869,-90.52906800000001,1,2,Armed Assault,20,Unknown,83.0,Guatemala,5,Firearms,Automatic firearm,11.0,,0.0,,
15339,198201210006,1982,1,21,61,El Salvador,2,Central America & Caribbean,Jocoaitique,13.90668,-88.157021,1,2,Armed Assault,14,Private Citizens & Property,61.0,El Salvador,5,Firearms,Automatic firearm,45.0,,0.0,,
15373,198201260008,1982,1,26,61,El Salvador,2,Central America & Caribbean,Zacatecoluca,13.5,-88.866667,1,2,Armed Assault,4,Military,61.0,El Salvador,5,Firearms,Automatic firearm,17.0,,0.0,,
15374,198201260009,1982,1,26,83,Guatemala,2,Central America & Caribbean,Ciudad Floris,16.912032999999997,-90.299578,1,2,Armed Assault,4,Military,83.0,Guatemala,5,Firearms,Automatic firearm,15.0,,0.0,,
15408,198202020006,1982,2,2,61,El Salvador,2,Central America & Caribbean,Nueva Trinidad,14.073542000000002,-88.787842,1,2,Armed Assault,14,Private Citizens & Property,61.0,El Salvador,5,Firearms,Automatic firearm,80.0,,0.0,,
15426,198202050008,1982,2,5,145,Nicaragua,2,Central America & Caribbean,Las Brisas,12.61667,-87.01666999999999,1,2,Armed Assault,4,Military,145.0,Nicaragua,5,Firearms,Automatic firearm,67.0,,3.0,,
15436,198202070009,1982,2,7,200,Syria,10,Middle East & North Africa,Hamah,35.129181,36.760738,1,3,Bombing/Explosion,4,Military,200.0,Syria,6,Explosives,Explosive,40.0,,0.0,,
15476,198202140001,1982,2,14,30,Brazil,3,South America,Sao Paulo,-23.550711,-46.633475,1,2,Armed Assault,20,Unknown,30.0,Brazil,5,Firearms,Automatic firearm,12.0,,0.0,,
15483,198202150005,1982,2,15,61,El Salvador,2,Central America & Caribbean,Apopa,13.798329999999998,-89.17889,1,2,Armed Assault,14,Private Citizens & Property,61.0,El Salvador,5,Firearms,Automatic firearm,11.0,,0.0,,
15485,198202160001,1982,2,16,83,Guatemala,2,Central America & Caribbean,San Miguel Uspantan,15.347892000000002,-90.87235,1,2,Armed Assault,14,Private Citizens & Property,83.0,Guatemala,9,Melee,Machete,51.0,,0.0,,
15510,198202190003,1982,2,19,92,India,6,South Asia,Unknown,24.663717000000002,93.906269,1,9,Unknown,4,Military,92.0,India,13,Unknown,,20.0,,5.0,,
15524,198202210009,1982,2,21,61,El Salvador,2,Central America & Caribbean,Sensuntepeque,13.874575,-88.627779,1,2,Armed Assault,4,Military,61.0,El Salvador,5,Firearms,Automatic firearm,24.0,,0.0,,
15530,198202220001,1982,2,22,94,Iran,10,Middle East & North Africa,Tehran,35.724533,51.405190000000005,1,3,Bombing/Explosion,4,Military,94.0,Iran,6,Explosives,Explosive,15.0,,60.0,,
15531,198202220002,1982,2,22,94,Iran,10,Middle East & North Africa,Tehran,35.724533,51.405190000000005,1,3,Bombing/Explosion,14,Private Citizens & Property,94.0,Iran,6,Explosives,Explosive,11.0,,61.0,,
15535,198202220006,1982,2,22,61,El Salvador,2,Central America & Caribbean,Yamabal,13.663669,-88.172009,1,2,Armed Assault,14,Private Citizens & Property,61.0,El Salvador,5,Firearms,Automatic firearm,12.0,,2.0,,
15584,198203010008,1982,3,1,159,Peru,3,South America,Ayacucho,-13.152712,-74.21862800000001,1,2,Armed Assault,3,Police,159.0,Peru,5,Firearms,Automatic firearm; Dynamite; Submachine gun,14.0,,,,
15592,198203030002,1982,3,3,61,El Salvador,2,Central America & Caribbean,Amatitan Arriba,13.755754000000001,-88.73273,1,2,Armed Assault,4,Military,61.0,El Salvador,5,Firearms,Automatic firearm,60.0,,0.0,,
15609,198203070007,1982,3,7,45,Colombia,3,South America,Almaguer,1.9137,-76.85494,1,2,Armed Assault,4,Military,45.0,Colombia,5,Firearms,Automatic firearm,11.0,,1.0,,
15623,198203080007,1982,3,8,45,Colombia,3,South America,Unknown,6.643708,-73.653621,1,2,Armed Assault,4,Military,45.0,Colombia,5,Firearms,AR-15; Automatic firearm,15.0,,0.0,,
15648,198203100014,1982,3,10,83,Guatemala,2,Central America & Caribbean,Coban,15.4737,-90.37254399999999,1,9,Unknown,20,Unknown,83.0,Guatemala,13,Unknown,,26.0,,0.0,,
15673,198203120010,1982,3,12,61,El Salvador,2,Central America & Caribbean,Chalatenango,14.04111,-88.938568,1,2,Armed Assault,4,Military,61.0,El Salvador,5,Firearms,Automatic firearm,30.0,,0.0,,
15685,198203140007,1982,3,14,61,El Salvador,2,Central America & Caribbean,Amatitan Abajo,13.766667000000002,-88.716667,1,2,Armed Assault,4,Military,61.0,El Salvador,5,Firearms,Automatic firearm,40.0,,0.0,,
15753,198203200001,1982,3,20,605,People's Republic of the Congo,11,Sub-Saharan Africa,Brazzaville,-4.225356,15.25106,1,3,Bombing/Explosion,1,Business,605.0,People's Republic of the Congo,6,Explosives,Explosive,15.0,,0.0,,
15761,198203210005,1982,3,21,83,Guatemala,2,Central America & Caribbean,Chimaltenango,14.664657,-90.82171,1,2,Armed Assault,20,Unknown,83.0,Guatemala,5,Firearms,Automatic firearm,13.0,,0.0,,
15803,198203260012,1982,3,26,159,Peru,3,South America,Oyon,-10.668181,-76.773232,1,2,Armed Assault,4,Military,159.0,Peru,5,Firearms,Automatic firearm,20.0,,0.0,,
15864,198204010010,1982,4,1,83,Guatemala,2,Central America & Caribbean,San Antonio Las Trojes,14.744361999999999,-90.715695,1,2,Armed Assault,15,Religious Figures/Institutions,83.0,Guatemala,5,Firearms,Automatic firearm,20.0,,0.0,,
15873,198204020005,1982,4,2,83,Guatemala,2,Central America & Caribbean,Unknown,15.498381,-90.982067,1,2,Armed Assault,14,Private Citizens & Property,83.0,Guatemala,5,Firearms,Automatic firearm,12.0,,0.0,,
15880,198204030005,1982,4,3,83,Guatemala,2,Central America & Caribbean,Rabinal,15.0845,-90.48893000000001,1,2,Armed Assault,14,Private Citizens & Property,83.0,Guatemala,5,Firearms,Automatic firearm,13.0,,0.0,,
15896,198204050003,1982,4,5,61,El Salvador,2,Central America & Caribbean,Tecoluca,13.536835,-88.78058399999999,1,2,Armed Assault,4,Military,61.0,El Salvador,5,Firearms,Automatic firearm,22.0,,0.0,,
15929,198204110001,1982,4,11,200,Syria,10,Middle East & North Africa,Damascus,33.515244,36.292084,1,3,Bombing/Explosion,4,Military,200.0,Syria,6,Explosives,Explosive,15.0,,0.0,,
15933,198204120002,1982,4,12,200,Syria,10,Middle East & North Africa,Aleppo,36.201721,37.14352,1,3,Bombing/Explosion,2,Government (General),200.0,Syria,6,Explosives,Explosive,25.0,,0.0,,
15965,198204160003,1982,4,16,83,Guatemala,2,Central America & Caribbean,Pujujil,14.822351000000001,-91.132097,1,2,Armed Assault,14,Private Citizens & Property,83.0,Guatemala,5,Firearms,Automatic firearm; Incendiary,30.0,,0.0,,
15976,198204170007,1982,4,17,83,Guatemala,2,Central America & Caribbean,Pujujil,14.822351000000001,-91.132097,1,2,Armed Assault,4,Military,83.0,Guatemala,5,Firearms,Automatic firearm,30.0,,0.0,,
16064,198204260005,1982,4,26,61,El Salvador,2,Central America & Caribbean,Meanguera,13.851327,-88.15620600000001,1,2,Armed Assault,4,Military,61.0,El Salvador,5,Firearms,Automatic firearm,16.0,,0.0,,
16069,198204270004,1982,4,27,83,Guatemala,2,Central America & Caribbean,Chipiacul,14.666667000000002,-91.06666700000001,1,2,Armed Assault,14,Private Citizens & Property,83.0,Guatemala,5,Firearms,Automatic firearm,20.0,,0.0,,
16163,198205050012,1982,5,5,145,Nicaragua,2,Central America & Caribbean,Alamicamba,13.464553,-84.007237,1,2,Armed Assault,4,Military,145.0,Nicaragua,5,Firearms,Automatic firearm,15.0,,0.0,,
16177,198205070006,1982,5,7,145,Nicaragua,2,Central America & Caribbean,Unknown,13.839445999999999,-83.93208100000001,1,2,Armed Assault,4,Military,145.0,Nicaragua,5,Firearms,Automatic firearm,20.0,,0.0,,
16181,198205080002,1982,5,8,159,Peru,3,South America,Huambalpa,-13.749722,-73.931111,1,2,Armed Assault,14,Private Citizens & Property,159.0,Peru,5,Firearms,Automatic firearm,18.0,,0.0,,
16205,198205100011,1982,5,10,83,Guatemala,2,Central America & Caribbean,Guantenango,15.587991,-91.676069,1,2,Armed Assault,14,Private Citizens & Property,83.0,Guatemala,5,Firearms,Automatic firearm,13.0,,0.0,,
16216,198205110004,1982,5,11,83,Guatemala,2,Central America & Caribbean,Salacium,15.562116,-90.415697,1,2,Armed Assault,20,Unknown,83.0,Guatemala,5,Firearms,Automatic firearm,20.0,,0.0,,
16228,198205130003,1982,5,13,61,El Salvador,2,Central America & Caribbean,San Felipe,13.653775,-88.681393,1,2,Armed Assault,4,Military,61.0,El Salvador,5,Firearms,Automatic firearm,22.0,,0.0,,
16245,198205160008,1982,5,16,83,Guatemala,2,Central America & Caribbean,Huehuetenango,15.319722,-91.47833,1,2,Armed Assault,20,Unknown,83.0,Guatemala,5,Firearms,Automatic firearm,12.0,,0.0,,
16263,198205180004,1982,5,18,83,Guatemala,2,Central America & Caribbean,Saquiya,14.95,-91.15,1,2,Armed Assault,17,Terrorists/Non-State Militia,83.0,Guatemala,5,Firearms,Automatic firearm,26.0,,0.0,,
16273,198205190004,1982,5,19,83,Guatemala,2,Central America & Caribbean,Patzulal and Chichel,15.433838,-91.014843,1,2,Armed Assault,17,Terrorists/Non-State Militia,83.0,Guatemala,5,Firearms,Automatic firearm,26.0,,0.0,,
16283,198205200008,1982,5,20,83,Guatemala,2,Central America & Caribbean,San Pedro Jocopilas,15.095278,-91.15083299999999,1,2,Armed Assault,4,Military,83.0,Guatemala,5,Firearms,Automatic firearm,30.0,,0.0,,
16293,198205220001,1982,5,22,160,Philippines,5,Southeast Asia,Alamada,7.332382000000001,124.567276,1,2,Armed Assault,20,Unknown,160.0,Philippines,5,Firearms,Automatic firearm,12.0,,0.0,,
16301,198205230004,1982,5,23,83,Guatemala,2,Central America & Caribbean,San Martin Jilotepeque,14.781398000000001,-90.792513,1,2,Armed Assault,4,Military,83.0,Guatemala,5,Firearms,Automatic firearm,16.0,,0.0,,
16306,198205240004,1982,5,24,110,Lebanon,10,Middle East & North Africa,Beirut,33.888523,35.503513,1,3,Bombing/Explosion,7,Government (Diplomatic),69.0,France,6,Explosives,Explosive,12.0,,27.0,,
16312,198205250006,1982,5,25,30,Brazil,3,South America,Rio de Janeiro,-22.908278,-43.197026,1,2,Armed Assault,20,Unknown,30.0,Brazil,5,Firearms,Pistol,12.0,,0.0,,
16327,198205280003,1982,5,28,160,Philippines,5,Southeast Asia,Josefina,8.208109,123.540173,1,9,Unknown,14,Private Citizens & Property,160.0,Philippines,13,Unknown,,11.0,,0.0,,
16408,198206080004,1982,6,8,83,Guatemala,2,Central America & Caribbean,Unknown,15.594288,-90.149499,1,2,Armed Assault,14,Private Citizens & Property,83.0,Guatemala,5,Firearms,Automatic firearm,23.0,,0.0,,
16412,198206090001,1982,6,9,92,India,6,South Asia,Gauhati,26.149794,91.763931,1,3,Bombing/Explosion,14,Private Citizens & Property,92.0,India,6,Explosives,Explosive,19.0,,50.0,,
16418,198206110001,1982,6,11,83,Guatemala,2,Central America & Caribbean,San Cristobal Verapaz,15.365662,-90.47916,1,2,Armed Assault,14,Private Citizens & Property,83.0,Guatemala,5,Firearms,Automatic firearm,15.0,,0.0,,
16419,198206110002,1982,6,11,83,Guatemala,2,Central America & Caribbean,Las Pacayas,15.4281,-90.76953,1,2,Armed Assault,14,Private Citizens & Property,83.0,Guatemala,5,Firearms,Automatic firearm,15.0,,0.0,,
16436,198206140005,1982,6,14,83,Guatemala,2,Central America & Caribbean,Nebaj,15.408332999999999,-91.147222,1,2,Armed Assault,14,Private Citizens & Property,83.0,Guatemala,5,Firearms,Automatic firearm,100.0,,35.0,,
16457,198206180004,1982,6,18,45,Colombia,3,South America,Puerto Boyaca district,5.975153,-74.58614200000001,1,2,Armed Assault,14,Private Citizens & Property,45.0,Colombia,5,Firearms,Automatic firearm,14.0,,0.0,,
16486,198206260001,1982,6,26,61,El Salvador,2,Central America & Caribbean,Ojos de Agua,14.180378,-88.892274,1,2,Armed Assault,14,Private Citizens & Property,61.0,El Salvador,13,Unknown,Heavily armed; Automatic firearm,21.0,,0.0,,
16520,198207030002,1982,7,3,88,Honduras,2,Central America & Caribbean,Tegucigalpa,14.0833,-87.2167,1,3,Bombing/Explosion,21,Utilities,88.0,Honduras,6,Explosives,Automatic firearms; Explosives,16.0,,0.0,,
16525,198207040005,1982,7,4,83,Guatemala,2,Central America & Caribbean,Chichipate,15.477520000000002,-89.465612,1,2,Armed Assault,14,Private Citizens & Property,83.0,Guatemala,5,Firearms,Automatic firearm,19.0,,0.0,,
16528,198207050004,1982,7,5,83,Guatemala,2,Central America & Caribbean,Pal,15.516670000000001,-90.93333,1,2,Armed Assault,4,Military,83.0,Guatemala,5,Firearms,Automatic firearm,39.0,,0.0,,
16536,198207060003,1982,7,6,145,Nicaragua,2,Central America & Caribbean,Puerto Cabezas,14.035070000000001,-83.38882,1,2,Armed Assault,4,Military,145.0,Nicaragua,5,Firearms,Automatic firearm,11.0,,0.0,,
16537,198207060004,1982,7,6,145,Nicaragua,2,Central America & Caribbean,"Butko, Llanos de",14.272020000000001,-83.66849,1,2,Armed Assault,4,Military,145.0,Nicaragua,5,Firearms,Automatic firearm,11.0,,0.0,,
16565,198207130003,1982,7,13,83,Guatemala,2,Central America & Caribbean,San Cristobal Verapaz,15.365662,-90.47916,1,2,Armed Assault,14,Private Citizens & Property,83.0,Guatemala,5,Firearms,Automatic firearm,13.0,,0.0,,
16568,198207130006,1982,7,13,83,Guatemala,2,Central America & Caribbean,San Cristobal Verapaz,15.365662,-90.47916,1,2,Armed Assault,14,Private Citizens & Property,83.0,Guatemala,5,Firearms,Automatic firearm,13.0,,,,
16602,198207170003,1982,7,17,83,Guatemala,2,Central America & Caribbean,Papumay,14.755234,-90.929862,1,2,Armed Assault,14,Private Citizens & Property,83.0,Guatemala,5,Firearms,Automatic firearm; Raid,42.0,,0.0,,
16608,198207180005,1982,7,18,83,Guatemala,2,Central America & Caribbean,El Sauce,15.53559,-89.27715699999999,1,2,Armed Assault,4,Military,83.0,Guatemala,5,Firearms,Automatic firearm,11.0,,0.0,,
16657,198207240006,1982,7,24,83,Guatemala,2,Central America & Caribbean,Unknown,15.07875,-90.412518,1,2,Armed Assault,4,Military,83.0,Guatemala,5,Firearms,Automatic firearm,41.0,,0.0,,
16697,198207280016,1982,7,28,83,Guatemala,2,Central America & Caribbean,Chex,15.381389000000002,-91.303889,1,2,Armed Assault,14,Private Citizens & Property,83.0,Guatemala,5,Firearms,Automatic firearm,22.0,,0.0,,
16706,198207290009,1982,7,29,61,El Salvador,2,Central America & Caribbean,Unknown,13.447063,-88.556531,1,2,Armed Assault,4,Military,61.0,El Salvador,5,Firearms,Automatic firearm,23.0,,0.0,,
16712,198207300006,1982,7,30,83,Guatemala,2,Central America & Caribbean,Las Colmenas,14.759720999999999,-89.228637,1,2,Armed Assault,14,Private Citizens & Property,83.0,Guatemala,5,Firearms,Automatic firearm,16.0,,0.0,,
16723,198208010004,1982,8,1,95,Iraq,10,Middle East & North Africa,Baghdad,33.303566,44.371773,1,3,Bombing/Explosion,2,Government (General),95.0,Iraq,6,Explosives,Explosive,20.0,,138.0,,
16762,198208050012,1982,8,5,160,Philippines,5,Southeast Asia,Davao City,7.083241,125.600998,1,2,Armed Assault,4,Military,160.0,Philippines,5,Firearms,Automatic firearm,12.0,,0.0,,
16808,198208160001,1982,8,16,83,Guatemala,2,Central America & Caribbean,Unknown,14.563479000000001,-90.982067,1,2,Armed Assault,4,Military,83.0,Guatemala,5,Firearms,Automatic firearm,22.0,,0.0,,
16859,198208200009,1982,8,20,61,El Salvador,2,Central America & Caribbean,Amatitan Arriba,13.755754000000001,-88.73273,1,2,Armed Assault,4,Military,61.0,El Salvador,5,Firearms,Automatic firearm,30.0,,0.0,,
16879,198208220004,1982,8,22,159,Peru,3,South America,Vilcashuaman,-13.65311,-73.95396,1,3,Bombing/Explosion,3,Police,159.0,Peru,5,Firearms,Automatic firearms; Dynamite,41.0,,3.0,,
16989,198209060003,1982,9,6,94,Iran,10,Middle East & North Africa,Tehran,35.724533,51.405190000000005,1,3,Bombing/Explosion,14,Private Citizens & Property,94.0,Iran,6,Explosives,Explosive,20.0,,100.0,,
17012,198209120004,1982,9,12,160,Philippines,5,Southeast Asia,Lugus,5.703998,120.819268,1,9,Unknown,14,Private Citizens & Property,160.0,Philippines,13,Unknown,Heavily armed attack,12.0,,1.0,,
17019,198209140001,1982,9,14,110,Lebanon,10,Middle East & North Africa,Beirut,33.888523,35.503513,1,1,Assassination,2,Government (General),110.0,Lebanon,6,Explosives,Bomb,21.0,,60.0,,
17039,198209170005,1982,9,17,61,El Salvador,2,Central America & Caribbean,Sesori,13.719546,-88.36063299999999,1,2,Armed Assault,14,Private Citizens & Property,61.0,El Salvador,5,Firearms,Arms; Arson,20.0,,0.0,,
17112,198209290012,1982,9,29,83,Guatemala,2,Central America & Caribbean,San Martin Jilotepeque,14.781398000000001,-90.792513,1,2,Armed Assault,4,Military,83.0,Guatemala,5,Firearms,Automatic firearm,27.0,,,,
17132,198210010005,1982,10,1,94,Iran,10,Middle East & North Africa,Tehran,35.724533,51.405190000000005,1,3,Bombing/Explosion,14,Private Citizens & Property,94.0,Iran,6,Explosives,A truck packed with 330 pounds of TNT were used in the attack.,60.0,,700.0,,
17144,198210030003,1982,10,3,83,Guatemala,2,Central America & Caribbean,Finca San Jose Las Rosas,14.837655999999999,-90.76007800000001,1,2,Armed Assault,4,Military,83.0,Guatemala,5,Firearms,Automatic firearm,17.0,,,,
17152,198210040007,1982,10,4,222,Venezuela,3,South America,Cantaura,9.311059,-64.35976,1,2,Armed Assault,4,Military,222.0,Venezuela,5,Firearms,Automatic firearm,26.0,,0.0,,
17198,198210110012,1982,10,11,83,Guatemala,2,Central America & Caribbean,Sayaxche,16.525914999999998,-90.189307,1,3,Bombing/Explosion,4,Military,83.0,Guatemala,6,Explosives,Mines,19.0,,7.0,,
17238,198210170007,1982,10,17,61,El Salvador,2,Central America & Caribbean,Concepcion Batres,13.337963,-88.374588,1,2,Armed Assault,4,Military,61.0,El Salvador,5,Firearms,Automatic firearm,20.0,,,,
17270,198210200007,1982,10,20,61,El Salvador,2,Central America & Caribbean,Unknown,13.433329999999998,-88.26666999999999,1,2,Armed Assault,4,Military,61.0,El Salvador,5,Firearms,Automatic firearm,114.0,,,,
17298,198210230007,1982,10,23,61,El Salvador,2,Central America & Caribbean,Cinquera,13.883332999999999,-88.966667,1,2,Armed Assault,4,Military,61.0,El Salvador,5,Firearms,Automatic firearm,50.0,,,,
17327,198210260015,1982,10,26,61,El Salvador,2,Central America & Caribbean,Unknown,13.445104,-88.24611800000001,1,2,Armed Assault,4,Military,61.0,El Salvador,5,Firearms,Automatic firearm,124.0,,,,
17340,198210270007,1982,10,27,61,El Salvador,2,Central America & Caribbean,Unknown,13.864829,-88.7494,1,2,Armed Assault,4,Military,61.0,El Salvador,5,Firearms,Automatic firearm,76.0,,,,
17427,198211110015,1982,11,11,110,Lebanon,10,Middle East & North Africa,Tyre district,33.287166,35.236186,1,3,Bombing/Explosion,4,Military,97.0,Israel,6,Explosives,,90.0,0.0,,0.0,
17435,198211130003,1982,11,13,159,Peru,3,South America,Chumbes,-13.429070999999999,-73.905947,1,2,Armed Assault,3,Police,159.0,Peru,5,Firearms,Automatic firearm,15.0,,2.0,,
17449,198211160003,1982,11,16,45,Colombia,3,South America,Valparaiso,5.615262,-75.62469200000001,1,2,Armed Assault,14,Private Citizens & Property,45.0,Colombia,5,Firearms,Automatic firearm,20.0,,0.0,,
17503,198211300009,1982,11,30,61,El Salvador,2,Central America & Caribbean,Tierra Blanca,13.387521,-88.65520699999999,1,3,Bombing/Explosion,19,Transportation,61.0,El Salvador,6,Explosives,Automatic firearm; Explosive,24.0,,6.0,,
17537,198212050004,1982,12,5,61,El Salvador,2,Central America & Caribbean,Santa Rosa de Lima,13.624722,-87.89361099999999,1,2,Armed Assault,4,Military,61.0,El Salvador,5,Firearms,Automatic firearm,32.0,,,,
17540,198212060002,1982,12,6,603,United Kingdom,8,Western Europe,Ballykelly,55.043617000000005,-7.0239270000000005,1,3,Bombing/Explosion,1,Business,216.0,Great Britain,6,Explosives,Explosive,16.0,0.0,66.0,0.0,
17543,198212060005,1982,12,6,61,El Salvador,2,Central America & Caribbean,Corinto,13.818332999999999,-87.971389,1,2,Armed Assault,4,Military,61.0,El Salvador,5,Firearms,Automatic firearm,100.0,,,,
17571,198212100014,1982,12,10,61,El Salvador,2,Central America & Caribbean,Santa Clara,13.702620999999999,-88.727772,1,2,Armed Assault,14,Private Citizens & Property,61.0,El Salvador,5,Firearms,Automatic firearm,23.0,,,,
17596,198212150002,1982,12,15,95,Iraq,10,Middle East & North Africa,Baghdad,33.303566,44.371773,1,3,Bombing/Explosion,10,Journalists & Media,95.0,Iraq,6,Explosives,Explosive,76.0,,,,
17633,198212180005,1982,12,18,61,El Salvador,2,Central America & Caribbean,Guazapa,13.876944,-89.173556,1,2,Armed Assault,4,Military,61.0,El Salvador,5,Firearms,Automatic firearm,33.0,,,,
17673,198212270007,1982,12,27,159,Peru,3,South America,Huancaraylla,-15.220761999999999,-72.317423,1,2,Armed Assault,4,Military,159.0,Peru,5,Firearms,Automatic firearm,13.0,,0.0,,
17685,198212290007,1982,12,29,159,Peru,3,South America,Huancaraylla,-15.220761999999999,-72.317423,1,3,Bombing/Explosion,3,Police,159.0,Peru,5,Firearms,Automatic firearm; Grenade,12.0,,1.0,,
17734,198301010024,1983,1,1,83,Guatemala,2,Central America & Caribbean,El Palmar,14.364182000000001,-90.20479499999999,1,9,Unknown,4,Military,83.0,Guatemala,13,Unknown,Ambushed,14.0,,12.0,,
17740,198301010030,1983,1,1,159,Peru,3,South America,Agua Blanca,-7.046556,-79.059533,1,3,Bombing/Explosion,14,Private Citizens & Property,159.0,Peru,6,Explosives,Automatic firearm; Shovels; Bomb; Machetes,18.0,,,,
17770,198301040012,1983,1,4,159,Peru,3,South America,San Francisco de Mosca,-10.342906,-76.29195899999999,1,2,Armed Assault,4,Military,159.0,Peru,5,Firearms,Automatic firearm,17.0,,,,
17873,198301160011,1983,1,16,159,Peru,3,South America,Huamaguilla district,-13.011242,-74.173447,1,2,Armed Assault,1,Business,159.0,Peru,5,Firearms,Automatic firearm,18.0,,,,
17877,198301170004,1983,1,17,61,El Salvador,2,Central America & Caribbean,San Salvador,13.692879999999999,-89.199161,1,2,Armed Assault,4,Military,61.0,El Salvador,5,Firearms,Automatic firearm,30.0,,0.0,,
17905,198301190010,1983,1,19,83,Guatemala,2,Central America & Caribbean,Xalbal,15.925094,-90.914539,1,2,Armed Assault,4,Military,83.0,Guatemala,5,Firearms,Automatic firearm,12.0,,0.0,,
17906,198301190011,1983,1,19,159,Peru,3,South America,Cocharcas,-13.61,-73.74,1,2,Armed Assault,4,Military,159.0,Peru,5,Firearms,Automatic firearm,17.0,,,,
17920,198301200013,1983,1,20,159,Peru,3,South America,Pampa Cangallo,-13.557452,-74.195661,0,2,Armed Assault,14,Private Citizens & Property,159.0,Peru,5,Firearms,Automatic firearm; Assault,20.0,,7.0,,
17947,198301250002,1983,1,25,83,Guatemala,2,Central America & Caribbean,Ixcan,15.98881,-90.7817,1,2,Armed Assault,4,Military,83.0,Guatemala,5,Firearms,Automatic firearm,12.0,,0.0,,
17949,198301250004,1983,1,25,145,Nicaragua,2,Central America & Caribbean,Cabo Viejo,14.933985999999999,-83.262918,1,2,Armed Assault,4,Military,145.0,Nicaragua,5,Firearms,Automatic firearm,25.0,,0.0,,
17963,198301270005,1983,1,27,145,Nicaragua,2,Central America & Caribbean,Unknown,13.839445999999999,-83.93208100000001,1,2,Armed Assault,4,Military,145.0,Nicaragua,5,Firearms,Automatic firearm,75.0,,0.0,,
17965,198301270007,1983,1,27,159,Peru,3,South America,Chuguara,-17.360278,-69.701111,0,3,Bombing/Explosion,19,Transportation,159.0,Peru,6,Explosives,Explosive; Dynamite,17.0,,1.0,,
17968,198301280003,1983,1,28,110,Lebanon,10,Middle East & North Africa,Chtaura,33.815732000000004,35.853305,1,3,Bombing/Explosion,14,Private Citizens & Property,200.0,Syria,6,Explosives,Explosive,12.0,,20.0,,
17992,198301310005,1983,1,31,61,El Salvador,2,Central America & Caribbean,Berlin,13.49446,-88.530343,1,2,Armed Assault,14,Private Citizens & Property,61.0,El Salvador,5,Firearms,Automatic firearm,60.0,,0.0,,
17996,198301310009,1983,1,31,83,Guatemala,2,Central America & Caribbean,Playa Grande,15.987447,-90.784191,1,2,Armed Assault,4,Military,83.0,Guatemala,5,Firearms,Automatic firearm,15.0,,0.0,,
17998,198301310011,1983,1,31,213,Uganda,11,Sub-Saharan Africa,Kakarenge,0.8271120000000001,32.627746,1,9,Unknown,19,Transportation,213.0,Uganda,13,Unknown,Armed attack,100.0,,0.0,,
18052,198302040008,1983,2,4,160,Philippines,5,Southeast Asia,Unknown,7.447972999999999,125.81000900000001,1,2,Armed Assault,4,Military,160.0,Philippines,5,Firearms,Automatic firearm,16.0,,0.0,,
18054,198302050001,1983,2,5,110,Lebanon,10,Middle East & North Africa,Beirut,33.888523,35.503513,1,3,Bombing/Explosion,17,Terrorists/Non-State Militia,155.0,West Bank and Gaza Strip,6,Explosives,Explosive,22.0,,136.0,,
18060,198302060004,1983,2,6,45,Colombia,3,South America,Unknown,0.869892,-73.84190600000001,1,3,Bombing/Explosion,4,Military,45.0,Colombia,6,Explosives,Automatic firearm; Explosive,15.0,,0.0,,
18066,198302080002,1983,2,8,83,Guatemala,2,Central America & Caribbean,Nebaj,15.408332999999999,-91.147222,1,2,Armed Assault,4,Military,83.0,Guatemala,5,Firearms,Automatic firearm,25.0,,0.0,,
18076,198302100003,1983,2,10,45,Colombia,3,South America,Sabana de Torres,7.39002,-73.50099,1,2,Armed Assault,14,Private Citizens & Property,45.0,Colombia,5,Firearms,Pistol,11.0,,0.0,,
18088,198302120004,1983,2,12,61,El Salvador,2,Central America & Caribbean,Milingo,13.75,-89.16667,1,2,Armed Assault,4,Military,61.0,El Salvador,5,Firearms,Automatic firearm,20.0,,50.0,,
18089,198302120005,1983,2,12,61,El Salvador,2,Central America & Caribbean,Suchitoto,13.933732000000001,-89.025836,1,2,Armed Assault,4,Military,61.0,El Salvador,5,Firearms,Automatic firearm,37.0,,40.0,,
18093,198302130004,1983,2,13,8,Angola,11,Sub-Saharan Africa,Jamba,-11.081467,14.302114000000001,1,2,Armed Assault,4,Military,51.0,Cuba,5,Firearms,Automatic firearm,50.0,,0.0,,
18094,198302130005,1983,2,13,8,Angola,11,Sub-Saharan Africa,Pundo,-12.382602,13.90511,1,2,Armed Assault,4,Military,51.0,Cuba,5,Firearms,Automatic firearm,57.0,,0.0,,
18102,198302140005,1983,2,14,61,El Salvador,2,Central America & Caribbean,Zacatecoluca,13.5,-88.866667,1,2,Armed Assault,4,Military,61.0,El Salvador,5,Firearms,Automatic firearm,41.0,,0.0,,
18125,198302170006,1983,2,17,145,Nicaragua,2,Central America & Caribbean,Unknown,13.839445999999999,-83.93208100000001,1,2,Armed Assault,4,Military,145.0,Nicaragua,5,Firearms,Automatic firearm,30.0,,0.0,,
18126,198302170007,1983,2,17,145,Nicaragua,2,Central America & Caribbean,Unknown,13.4726,-86.459209,1,2,Armed Assault,4,Military,145.0,Nicaragua,5,Firearms,Automatic firearm,25.0,,0.0,,
18137,198302180007,1983,2,18,61,El Salvador,2,Central America & Caribbean,Meanguera,13.851327,-88.15620600000001,1,2,Armed Assault,4,Military,61.0,El Salvador,5,Firearms,Automatic firearm,31.0,,5.0,,
18143,198302200001,1983,2,20,145,Nicaragua,2,Central America & Caribbean,Cerro Blanco,13.51031,-86.09602,1,2,Armed Assault,4,Military,145.0,Nicaragua,5,Firearms,Automatic firearm,25.0,,0.0,,
18144,198302200002,1983,2,20,159,Peru,3,South America,Huanta district,-12.939782000000001,-74.247478,1,2,Armed Assault,3,Police,159.0,Peru,5,Firearms,Automatic firearm,60.0,,,,
18145,198302200003,1983,2,20,159,Peru,3,South America,Sacsamarca,-13.942825,-74.312575,1,2,Armed Assault,4,Military,159.0,Peru,5,Firearms,Automatic firearm,15.0,,,,
18146,198302200004,1983,2,20,159,Peru,3,South America,Carhuauran,-12.7275,-74.125,1,2,Armed Assault,14,Private Citizens & Property,159.0,Peru,5,Firearms,Automatic firearm,50.0,,,,
18151,198302210004,1983,2,21,61,El Salvador,2,Central America & Caribbean,El Salitre,13.8222,-89.25389,1,2,Armed Assault,4,Military,61.0,El Salvador,5,Firearms,Automatic firearm,30.0,,0.0,,
18181,198302260005,1983,2,26,159,Peru,3,South America,Ayacucho district,-14.31884,-74.378173,1,2,Armed Assault,4,Military,159.0,Peru,5,Firearms,Automatic firearm,62.0,,,,
18209,198303010008,1983,3,1,145,Nicaragua,2,Central America & Caribbean,Rio Blanco,12.931569999999999,-85.224113,1,2,Armed Assault,4,Military,145.0,Nicaragua,5,Firearms,Automatic firearm,16.0,,0.0,,
18236,198303060003,1983,3,6,61,El Salvador,2,Central America & Caribbean,El Limon,14.050872,-88.994625,1,2,Armed Assault,4,Military,61.0,El Salvador,5,Firearms,Automatic firearm,15.0,,0.0,,
18287,198303150007,1983,3,15,61,El Salvador,2,Central America & Caribbean,Bermuda,13.871389,-89.375,1,2,Armed Assault,4,Military,61.0,El Salvador,5,Firearms,Automatic firearm,21.0,,0.0,,
18288,198303150008,1983,3,15,145,Nicaragua,2,Central America & Caribbean,Jiquelite,13.47882,-85.93799999999999,1,2,Armed Assault,4,Military,145.0,Nicaragua,5,Firearms,Automatic firearm,14.0,,0.0,,
18351,198303220005,1983,3,22,145,Nicaragua,2,Central America & Caribbean,Puerto Viejo,13.51457,-85.24557,1,2,Armed Assault,4,Military,145.0,Nicaragua,5,Firearms,Automatic firearm,46.0,,0.0,,
18353,198303220007,1983,3,22,145,Nicaragua,2,Central America & Caribbean,El Castillo,11.01844,-84.39811,1,2,Armed Assault,4,Military,145.0,Nicaragua,5,Firearms,Automatic firearm,23.0,,0.0,,
18360,198303230006,1983,3,23,145,Nicaragua,2,Central America & Caribbean,San Fernando,13.6772,-86.3153,1,2,Armed Assault,4,Military,145.0,Nicaragua,5,Firearms,Automatic firearm,15.0,,0.0,,
18397,198303260014,1983,3,26,111,Lesotho,11,Sub-Saharan Africa,Unknown,-30.324445,28.018575,1,3,Bombing/Explosion,3,Police,111.0,Lesotho,5,Firearms,Automatic firearm; Mortar,20.0,0.0,0.0,0.0,
18457,198304030010,1983,4,3,145,Nicaragua,2,Central America & Caribbean,El Corozo,12.1,-84.9,1,2,Armed Assault,4,Military,145.0,Nicaragua,5,Firearms,Automatic firearm,41.0,,0.0,,
18459,198304030012,1983,4,3,61,El Salvador,2,Central America & Caribbean,Verapaz,13.64385,-88.870694,1,2,Armed Assault,14,Private Citizens & Property,61.0,El Salvador,5,Firearms,Automatic firearm; Storm and demolish,11.0,,0.0,,
18460,198304030013,1983,4,3,159,Peru,3,South America,Lucanamarca,-13.843592999999998,-74.37256,1,2,Armed Assault,14,Private Citizens & Property,159.0,Peru,5,Firearms,Automatic firearm,45.0,,0.0,,
18477,198304070003,1983,4,7,159,Peru,3,South America,Huanso,-15.816944,-72.659444,1,2,Armed Assault,14,Private Citizens & Property,159.0,Peru,5,Firearms,Automatic firearm,17.0,,0.0,,
18478,198304070004,1983,4,7,159,Peru,3,South America,Lacho,-11.722368,-75.904655,1,2,Armed Assault,14,Private Citizens & Property,159.0,Peru,5,Firearms,Automatic firearm,15.0,,0.0,,
18479,198304070005,1983,4,7,159,Peru,3,South America,Cruzpata,-13.4,-74.0,1,2,Armed Assault,14,Private Citizens & Property,159.0,Peru,5,Firearms,Automatic firearm,15.0,,0.0,,
18480,198304070006,1983,4,7,159,Peru,3,South America,La Atarjea,-11.967367999999999,-76.978462,1,2,Armed Assault,14,Private Citizens & Property,159.0,Peru,5,Firearms,Automatic firearm,12.0,,0.0,,
18481,198304070007,1983,4,7,145,Nicaragua,2,Central America & Caribbean,Chaguiton,13.65,-87.13333,1,2,Armed Assault,4,Military,145.0,Nicaragua,5,Firearms,Automatic firearm,30.0,,10.0,,
18487,198304080005,1983,4,8,145,Nicaragua,2,Central America & Caribbean,Las Animas,12.810234,-85.786635,1,2,Armed Assault,4,Military,145.0,Nicaragua,5,Firearms,Automatic firearm,75.0,,0.0,,
18519,198304100010,1983,4,10,145,Nicaragua,2,Central America & Caribbean,Jalapa,13.924029999999998,-86.08498,1,2,Armed Assault,4,Military,145.0,Nicaragua,5,Firearms,Automatic firearm,16.0,,0.0,,
18534,198304120008,1983,4,12,160,Philippines,5,Southeast Asia,Unknown,17.555726,120.838718,1,9,Unknown,4,Military,160.0,Philippines,13,Unknown,Ambushed,12.0,,,,
18552,198304150002,1983,4,15,61,El Salvador,2,Central America & Caribbean,Estanzuelas,13.65,-88.5,1,2,Armed Assault,14,Private Citizens & Property,61.0,El Salvador,5,Firearms,Automatic firearm,40.0,,0.0,,
18570,198304170008,1983,4,17,145,Nicaragua,2,Central America & Caribbean,Somoto district,13.541594,-86.638035,1,2,Armed Assault,4,Military,145.0,Nicaragua,5,Firearms,Automatic firearm,56.0,,0.0,,
18572,198304180001,1983,4,18,110,Lebanon,10,Middle East & North Africa,Beirut,33.888523,35.503513,1,3,Bombing/Explosion,7,Government (Diplomatic),217.0,United States,6,Explosives,Explosive,63.0,17.0,120.0,,
18578,198304180007,1983,4,18,145,Nicaragua,2,Central America & Caribbean,Ocotal,13.63325,-86.476299,1,2,Armed Assault,14,Private Citizens & Property,145.0,Nicaragua,5,Firearms,Automatic firearm,120.0,,0.0,,
18579,198304190001,1983,4,19,159,Peru,3,South America,Ayacucho,-13.152712,-74.21862800000001,1,9,Unknown,14,Private Citizens & Property,159.0,Peru,13,Unknown,,18.0,,0.0,,
18592,198304210002,1983,4,21,145,Nicaragua,2,Central America & Caribbean,Chachagon,14.152916000000001,-85.07311999999999,1,2,Armed Assault,4,Military,145.0,Nicaragua,5,Firearms,Automatic firearm,13.0,,0.0,,
18595,198304210005,1983,4,21,159,Peru,3,South America,Ocros,-10.403488000000001,-77.396721,1,2,Armed Assault,14,Private Citizens & Property,159.0,Peru,5,Firearms,Automatic firearm,18.0,0.0,0.0,0.0,
18599,198304230002,1983,4,23,159,Peru,3,South America,Carhuanca,-13.742232999999999,-73.787522,1,9,Unknown,14,Private Citizens & Property,159.0,Peru,13,Unknown,,11.0,,0.0,,
18616,198304250009,1983,4,25,159,Peru,3,South America,Llusita,-13.698607999999998,-74.115842,1,2,Armed Assault,14,Private Citizens & Property,159.0,Peru,5,Firearms,Automatic firearm,12.0,0.0,7.0,0.0,
18644,198304290006,1983,4,29,61,El Salvador,2,Central America & Caribbean,El Amatillo,13.6,-87.76666999999999,1,3,Bombing/Explosion,14,Private Citizens & Property,61.0,El Salvador,5,Firearms,Automatic firearm; Explosives; Attacked; Burned,58.0,,0.0,,
18645,198304290007,1983,4,29,61,El Salvador,2,Central America & Caribbean,Santa Rosa de Lima,13.624722,-87.89361099999999,1,3,Bombing/Explosion,19,Transportation,61.0,El Salvador,6,Explosives,Automatic firearm; Explosives,50.0,,0.0,,
18647,198304300001,1983,4,30,45,Colombia,3,South America,Bucaramanga,7.116294,-73.120026,1,2,Armed Assault,3,Police,45.0,Colombia,5,Firearms,Pistol,11.0,,0.0,,
18648,198304300002,1983,4,30,145,Nicaragua,2,Central America & Caribbean,San Lucas,13.4138,-86.6111,1,2,Armed Assault,4,Military,145.0,Nicaragua,5,Firearms,Automatic firearm,13.0,,0.0,,
18649,198304300003,1983,4,30,145,Nicaragua,2,Central America & Caribbean,Wiwili district,13.853697,-85.593154,1,2,Armed Assault,14,Private Citizens & Property,145.0,Nicaragua,13,Unknown,Ambushed; Automatic firearm,13.0,,0.0,,
18656,198305010007,1983,5,1,145,Nicaragua,2,Central America & Caribbean,Wanblan,13.85738,-85.73339,1,2,Armed Assault,4,Military,145.0,Nicaragua,5,Firearms,Automatic firearm,18.0,,0.0,,
18663,198305020005,1983,5,2,61,El Salvador,2,Central America & Caribbean,El Roblar,13.91,-89.06971999999999,1,2,Armed Assault,4,Military,61.0,El Salvador,5,Firearms,Automatic firearm,28.0,,0.0,,
18664,198305020006,1983,5,2,145,Nicaragua,2,Central America & Caribbean,El Barro,13.341029999999998,-86.4534,1,2,Armed Assault,4,Military,145.0,Nicaragua,5,Firearms,Automatic firearm,25.0,,0.0,,
18682,198305050005,1983,5,5,61,El Salvador,2,Central America & Caribbean,San Pedro Masahuat,13.551656,-89.049288,1,2,Armed Assault,4,Military,61.0,El Salvador,5,Firearms,Automatic firearm,16.0,,0.0,,
18683,198305050006,1983,5,5,145,Nicaragua,2,Central America & Caribbean,El Limon,13.841425,-86.193928,1,2,Armed Assault,4,Military,145.0,Nicaragua,5,Firearms,Automatic firearm,20.0,,0.0,,
18694,198305070002,1983,5,7,145,Nicaragua,2,Central America & Caribbean,San Pablo,12.88263,-86.71939,1,3,Bombing/Explosion,4,Military,145.0,Nicaragua,6,Explosives,Rocket,100.0,,0.0,,
18698,198305080002,1983,5,8,61,El Salvador,2,Central America & Caribbean,Cinquera,13.883332999999999,-88.966667,1,2,Armed Assault,14,Private Citizens & Property,61.0,El Salvador,5,Firearms,Automatic firearm,120.0,,0.0,,
18727,198305110003,1983,5,11,61,El Salvador,2,Central America & Caribbean,Cinquera,13.883332999999999,-88.966667,1,2,Armed Assault,4,Military,61.0,El Salvador,5,Firearms,Automatic firearm,102.0,,0.0,,
18728,198305110004,1983,5,11,145,Nicaragua,2,Central America & Caribbean,Bluefields district,11.327162,-84.03855899999999,1,2,Armed Assault,4,Military,145.0,Nicaragua,5,Firearms,Automatic firearm,12.0,,,,
18751,198305160005,1983,5,16,159,Peru,3,South America,Hualla,-13.849801999999999,-73.950565,1,2,Armed Assault,4,Military,159.0,Peru,5,Firearms,Automatic firearm,14.0,,0.0,,
18773,198305200005,1983,5,20,183,South Africa,11,Sub-Saharan Africa,Pretoria,-25.748281,28.212069,1,3,Bombing/Explosion,4,Military,183.0,South Africa,6,Explosives,Explosive,19.0,,217.0,,
18789,198305210009,1983,5,21,159,Peru,3,South America,Matara,-7.255775999999999,-78.259762,1,2,Armed Assault,4,Military,159.0,Peru,5,Firearms,Automatic firearm,20.0,,0.0,,
18800,198305220012,1983,5,22,159,Peru,3,South America,Victor Fajardo district,-13.720412,-74.17097,1,2,Armed Assault,2,Government (General),159.0,Peru,5,Firearms,Automatic firearm,51.0,,0.0,,
18801,198305220014,1983,5,22,159,Peru,3,South America,Ayacucho district,-14.31884,-74.378173,1,2,Armed Assault,4,Military,159.0,Peru,5,Firearms,Automatic firearm,41.0,0.0,0.0,0.0,
18859,198305230059,1983,5,23,159,Peru,3,South America,Sacsamarca,-13.942825,-74.312575,1,2,Armed Assault,14,Private Citizens & Property,159.0,Peru,5,Firearms,Automatic firearm,79.0,,2.0,,
18974,198306040003,1983,6,4,159,Peru,3,South America,Ayacucho district,-14.31884,-74.378173,1,9,Unknown,14,Private Citizens & Property,159.0,Peru,13,Unknown,,26.0,,0.0,,
18988,198306050008,1983,6,5,8,Angola,11,Sub-Saharan Africa,Cuima,-13.243901000000001,15.641259,1,3,Bombing/Explosion,21,Utilities,8.0,Angola,6,Explosives,Explosive; Automatic firearm,37.0,,0.0,,
18989,198306050009,1983,6,5,45,Colombia,3,South America,La Laguna,1.50006,-76.01663,1,2,Armed Assault,4,Military,45.0,Colombia,5,Firearms,Automatic firearm,12.0,,0.0,,
18992,198306050012,1983,6,5,61,El Salvador,2,Central America & Caribbean,Tenancingo,13.835529999999999,-88.985462,1,2,Armed Assault,14,Private Citizens & Property,61.0,El Salvador,5,Firearms,Automatic firearm,32.0,,18.0,,
18993,198306050013,1983,6,5,61,El Salvador,2,Central America & Caribbean,Monte San Juan,13.760003,-88.949766,1,2,Armed Assault,14,Private Citizens & Property,61.0,El Salvador,5,Firearms,Automatic firearm,22.0,,0.0,,
19017,198306090005,1983,6,9,145,Nicaragua,2,Central America & Caribbean,El Porvenir,14.065404000000001,-86.024135,1,2,Armed Assault,14,Private Citizens & Property,145.0,Nicaragua,5,Firearms,Automatic firearm,18.0,,,,
19031,198306110004,1983,6,11,83,Guatemala,2,Central America & Caribbean,El Socorro,14.566277,-90.287775,1,3,Bombing/Explosion,4,Military,83.0,Guatemala,13,Unknown,Ambushed; Claymore mine; Gunfire,15.0,,0.0,,
19056,198306130008,1983,6,13,159,Peru,3,South America,ocros,-10.403488000000001,-77.396721,1,2,Armed Assault,14,Private Citizens & Property,159.0,Peru,5,Firearms,Automatic firearm,14.0,,0.0,,
19070,198306140011,1983,6,14,159,Peru,3,South America,San Antonio,-8.35,-78.4,1,2,Armed Assault,2,Government (General),159.0,Peru,5,Firearms,Firearms,15.0,0.0,,0.0,
19085,198306160013,1983,6,16,110,Lebanon,10,Middle East & North Africa,Tripoli,34.438094,35.830837,1,2,Armed Assault,14,Private Citizens & Property,110.0,Lebanon,5,Firearms,Firearm,16.0,,20.0,,
19096,198306160024,1983,6,16,159,Peru,3,South America,Huamachuco district,-7.815617,-78.048885,1,2,Armed Assault,1,Business,159.0,Peru,5,Firearms,Automatic firearm,15.0,0.0,,0.0,
19101,198306170004,1983,6,17,145,Nicaragua,2,Central America & Caribbean,El Porvenir,14.065404000000001,-86.024135,1,2,Armed Assault,4,Military,145.0,Nicaragua,5,Firearms,Automatic firearm,17.0,,,,
19102,198306170005,1983,6,17,145,Nicaragua,2,Central America & Caribbean,Jalapa,13.924029999999998,-86.08498,1,2,Armed Assault,4,Military,145.0,Nicaragua,5,Firearms,Automatic firearm,27.0,,,,
19111,198306190004,1983,6,19,83,Guatemala,2,Central America & Caribbean,Ixcomcadaj,15.542342000000001,-91.165829,1,2,Armed Assault,4,Military,83.0,Guatemala,5,Firearms,Automatic firearm,14.0,,3.0,,
19120,198306210003,1983,6,21,61,El Salvador,2,Central America & Caribbean,Tierra Blanca,13.274170000000002,-88.05611,1,2,Armed Assault,4,Military,61.0,El Salvador,5,Firearms,Automatic firearm,40.0,,0.0,,
19126,198306220006,1983,6,22,61,El Salvador,2,Central America & Caribbean,Suchitoto,13.933732000000001,-89.025836,1,3,Bombing/Explosion,19,Transportation,61.0,El Salvador,5,Firearms,Gunfire; Dynamite,25.0,,0.0,,
19145,198306240007,1983,6,24,145,Nicaragua,2,Central America & Caribbean,Ocotal district,13.631126,-86.528927,1,2,Armed Assault,4,Military,145.0,Nicaragua,5,Firearms,Automatic firearm,52.0,,,,
19174,198306270006,1983,6,27,83,Guatemala,2,Central America & Caribbean,Nebaj,15.408332999999999,-91.147222,1,2,Armed Assault,4,Military,83.0,Guatemala,5,Firearms,Automatic firearm,24.0,,0.0,,
19234,198307050008,1983,7,5,159,Peru,3,South America,Ayacucho,-13.152712,-74.21862800000001,1,2,Armed Assault,3,Police,159.0,Peru,5,Firearms,Automatic firearm,17.0,0.0,,0.0,
19252,198307070008,1983,7,7,61,El Salvador,2,Central America & Caribbean,Nueva Granada,13.595253,-88.448924,1,2,Armed Assault,14,Private Citizens & Property,61.0,El Salvador,5,Firearms,Automatic firearm; Taken over by suprise,24.0,,0.0,,
19266,198307100004,1983,7,10,145,Nicaragua,2,Central America & Caribbean,Barra de Rio Grande,12.906885,-83.524165,1,2,Armed Assault,4,Military,145.0,Nicaragua,5,Firearms,Automatic firearm,11.0,,,,
19297,198307140002,1983,7,14,45,Colombia,3,South America,Cimitarra district,6.313712000000001,-73.95014599999999,1,2,Armed Assault,14,Private Citizens & Property,45.0,Colombia,5,Firearms,Pistol,12.0,,0.0,,
19321,198307170009,1983,7,17,145,Nicaragua,2,Central America & Caribbean,Unknown,13.091683,-86.000314,1,2,Armed Assault,4,Military,145.0,Nicaragua,5,Firearms,Automatic firearm,31.0,,,,
19366,198307230002,1983,7,23,8,Angola,11,Sub-Saharan Africa,Sautar,-11.185346000000001,18.440938,1,2,Armed Assault,14,Private Citizens & Property,8.0,Angola,5,Firearms,Automatic firearm,58.0,,0.0,,
19377,198307250005,1983,7,25,145,Nicaragua,2,Central America & Caribbean,Kiawas,12.888862,-84.325388,1,2,Armed Assault,4,Military,145.0,Nicaragua,5,Firearms,Automatic firearm,17.0,,,,
19380,198307250008,1983,7,25,145,Nicaragua,2,Central America & Caribbean,Unknown,13.193481,-84.072455,1,2,Armed Assault,4,Military,145.0,Nicaragua,5,Firearms,Automatic firearm,48.0,,12.0,,
19385,198307260003,1983,7,26,8,Angola,11,Sub-Saharan Africa,Benguela,-12.590425999999999,13.416201999999998,1,3,Bombing/Explosion,19,Transportation,8.0,Angola,6,Explosives,Mine,77.0,,319.0,,
19431,198308010008,1983,8,1,159,Peru,3,South America,San Jose de Secce,-12.57906,-74.228928,1,2,Armed Assault,4,Military,159.0,Peru,5,Firearms,Automatic firearm,42.0,,24.0,,
19438,198308030007,1983,8,3,145,Nicaragua,2,Central America & Caribbean,La Azucena,11.154461,-84.607354,1,2,Armed Assault,4,Military,145.0,Nicaragua,5,Firearms,Automatic firearm,28.0,,11.0,,
19444,198308040006,1983,8,4,61,El Salvador,2,Central America & Caribbean,Socorro,13.47417,-88.01694,1,2,Armed Assault,4,Military,61.0,El Salvador,5,Firearms,Automatic firearm,14.0,,0.0,,
19449,198308050002,1983,8,5,110,Lebanon,10,Middle East & North Africa,Tripoli,34.438094,35.830837,1,3,Bombing/Explosion,15,Religious Figures/Institutions,110.0,Lebanon,6,Explosives,Explosive,24.0,,50.0,,
19464,198308070006,1983,8,7,110,Lebanon,10,Middle East & North Africa,Baalbek,34.034915999999996,36.227844,1,3,Bombing/Explosion,14,Private Citizens & Property,200.0,Syria,6,Explosives,Explosive,35.0,,133.0,,
19469,198308070011,1983,8,7,61,El Salvador,2,Central America & Caribbean,Cerro Cacahuatique,13.785429999999998,-88.22335,1,2,Armed Assault,4,Military,61.0,El Salvador,5,Firearms,Automatic firearm,19.0,,0.0,,
19470,198308070012,1983,8,7,61,El Salvador,2,Central America & Caribbean,Unknown,13.447063,-88.556531,1,2,Armed Assault,4,Military,61.0,El Salvador,5,Firearms,Automatic firearm,25.0,,0.0,,
19476,198308070018,1983,8,7,145,Nicaragua,2,Central America & Caribbean,Wiwili district,13.853697,-85.593154,1,2,Armed Assault,4,Military,145.0,Nicaragua,5,Firearms,Automatic firearm,14.0,,,,
19504,198308100005,1983,8,10,61,El Salvador,2,Central America & Caribbean,Santa Tecla,13.676944,-89.27972199999999,1,2,Armed Assault,4,Military,61.0,El Salvador,5,Firearms,Automatic firearm,11.0,,23.0,,
19505,198308100006,1983,8,10,145,Nicaragua,2,Central America & Caribbean,Jinotega district,13.130707000000001,-85.971684,1,2,Armed Assault,19,Transportation,145.0,Nicaragua,5,Firearms,Automatic firearm,12.0,,6.0,,
19529,198308150007,1983,8,15,145,Nicaragua,2,Central America & Caribbean,San Rafael del Norte,13.215073,-86.109998,1,2,Armed Assault,4,Military,145.0,Nicaragua,5,Firearms,Automatic firearm,26.0,,1.0,,
19567,198308210007,1983,8,21,145,Nicaragua,2,Central America & Caribbean,Paiwas,13.062052,-85.032064,1,2,Armed Assault,4,Military,145.0,Nicaragua,5,Firearms,Automatic firearm,12.0,,,,
19574,198308220005,1983,8,22,61,El Salvador,2,Central America & Caribbean,Unknown,13.6,-88.85,1,2,Armed Assault,4,Military,61.0,El Salvador,5,Firearms,Automatic firearm,31.0,,0.0,,
19577,198308220008,1983,8,22,145,Nicaragua,2,Central America & Caribbean,Matagalpa district,12.924807000000001,-85.97294000000001,1,2,Armed Assault,4,Military,145.0,Nicaragua,5,Firearms,Automatic firearm,30.0,,,,
19578,198308220009,1983,8,22,145,Nicaragua,2,Central America & Caribbean,Jinotega district,13.130707000000001,-85.971684,1,2,Armed Assault,4,Military,145.0,Nicaragua,5,Firearms,Automatic firearm,50.0,,,,
19590,198308240006,1983,8,24,145,Nicaragua,2,Central America & Caribbean,Siapali,13.788421,-86.08545500000001,1,2,Armed Assault,4,Military,145.0,Nicaragua,5,Firearms,Automatic firearm,30.0,,,,
19598,198308250006,1983,8,25,145,Nicaragua,2,Central America & Caribbean,El Jicaro,13.7229,-86.13852,1,2,Armed Assault,14,Private Citizens & Property,145.0,Nicaragua,5,Firearms,Automatic firearm,23.0,,,,
19618,198308280004,1983,8,28,88,Honduras,2,Central America & Caribbean,La Zompapera,13.729643,-87.56939100000001,1,2,Armed Assault,4,Military,145.0,Nicaragua,5,Firearms,Automatic firearm,16.0,,,,
19624,198308290003,1983,8,29,61,El Salvador,2,Central America & Caribbean,El Gavilan,14.051882999999998,-89.435711,1,2,Armed Assault,4,Military,61.0,El Salvador,5,Firearms,Automatic firearm,15.0,,0.0,,
19665,198309040001,1983,9,4,61,El Salvador,2,Central America & Caribbean,San Miguel,13.491242000000002,-88.17313399999999,1,2,Armed Assault,14,Private Citizens & Property,61.0,El Salvador,5,Firearms,Automatic firearm,30.0,,48.0,,
19666,198309040002,1983,9,4,145,Nicaragua,2,Central America & Caribbean,San Juan del Norte district,10.947564,-83.73589799999999,1,2,Armed Assault,4,Military,145.0,Nicaragua,5,Firearms,Automatic firearm,30.0,,,,
19676,198309050005,1983,9,5,83,Guatemala,2,Central America & Caribbean,Jocotan,14.821381,-89.387197,1,2,Armed Assault,14,Private Citizens & Property,83.0,Guatemala,5,Firearms,Pistol,12.0,,0.0,,
19680,198309050009,1983,9,5,61,El Salvador,2,Central America & Caribbean,Guazapa,13.876944,-89.173556,1,2,Armed Assault,4,Military,61.0,El Salvador,5,Firearms,Automatic firearm,15.0,,0.0,,
19684,198309050013,1983,9,5,159,Peru,3,South America,Moyobamba,-6.034766,-76.973892,1,2,Armed Assault,4,Military,159.0,Peru,5,Firearms,Automatic firearm,40.0,,0.0,,
19713,198309090001,1983,9,9,83,Guatemala,2,Central America & Caribbean,San Miguel Uspantan,15.347892000000002,-90.87235,1,2,Armed Assault,4,Military,83.0,Guatemala,5,Firearms,Automatic firearm,28.0,,0.0,,
19720,198309110002,1983,9,11,88,Honduras,2,Central America & Caribbean,Unknown,14.581397,-85.55518599999999,1,2,Armed Assault,4,Military,88.0,Honduras,5,Firearms,Automatic firearm,11.0,,0.0,,
19749,198309130017,1983,9,13,145,Nicaragua,2,Central America & Caribbean,Unknown,13.091683,-86.000314,1,2,Armed Assault,4,Military,145.0,Nicaragua,5,Firearms,Automatic firearm,30.0,,,,
19758,198309140003,1983,9,14,61,El Salvador,2,Central America & Caribbean,Jucuaran,13.253889000000001,-88.247778,1,2,Armed Assault,4,Military,61.0,El Salvador,5,Firearms,Automatic firearm,38.0,,0.0,,
19759,198309140004,1983,9,14,145,Nicaragua,2,Central America & Caribbean,Mozonte,13.662335999999998,-86.437449,1,2,Armed Assault,4,Military,145.0,Nicaragua,5,Firearms,Automatic firearm,16.0,,,,
19778,198309160003,1983,9,16,145,Nicaragua,2,Central America & Caribbean,La Concordia,13.195382,-86.167644,1,2,Armed Assault,4,Military,145.0,Nicaragua,5,Firearms,Automatic firearm,15.0,,20.0,,
19789,198309180004,1983,9,18,61,El Salvador,2,Central America & Caribbean,Nuevo Eden de San Juan,13.824224,-88.485189,1,2,Armed Assault,4,Military,61.0,El Salvador,5,Firearms,Automatic firearm,49.0,,0.0,,
19828,198309220009,1983,9,22,159,Peru,3,South America,Chiquirahua,-5.060322,-79.536961,1,9,Unknown,20,Unknown,,,13,Unknown,,13.0,,0.0,,
19838,198309230010,1983,9,23,215,United Arab Emirates,10,Middle East & North Africa,Jebel Ali,25.01126,55.06116,1,3,Bombing/Explosion,6,Airports & Aircraft,422.0,International,6,Explosives,Bomb,111.0,1.0,0.0,0.0,
19848,198309260002,1983,9,26,88,Honduras,2,Central America & Caribbean,Las Perlas de Cuyamel,14.581397,-85.55518599999999,1,2,Armed Assault,4,Military,88.0,Honduras,5,Firearms,Automatic firearm,16.0,,0.0,,
19856,198309270004,1983,9,27,159,Peru,3,South America,Triboline,-12.58,-73.85972199999999,1,2,Armed Assault,3,Police,159.0,Peru,5,Firearms,Automatic firearm,11.0,,0.0,,
19857,198309270005,1983,9,27,159,Peru,3,South America,Rosario,-12.597099,-73.83087900000001,1,2,Armed Assault,4,Military,159.0,Peru,5,Firearms,Automatic firearm,22.0,,0.0,,
19892,198310030002,1983,10,3,83,Guatemala,2,Central America & Caribbean,Chamac,15.433333,-90.833333,1,2,Armed Assault,4,Military,83.0,Guatemala,5,Firearms,Automatic firearm,23.0,,0.0,,
19895,198310030005,1983,10,3,159,Peru,3,South America,Santa Rosa,-6.875967999999999,-79.922097,1,2,Armed Assault,3,Police,159.0,Peru,5,Firearms,Automatic firearm,12.0,,0.0,,
19901,198310040006,1983,10,4,83,Guatemala,2,Central America & Caribbean,Unknown,15.594288,-90.149499,1,2,Armed Assault,3,Police,83.0,Guatemala,5,Firearms,Automatic firearm,19.0,,0.0,,
19908,198310050004,1983,10,5,61,El Salvador,2,Central America & Caribbean,Unknown,13.6,-88.85,1,2,Armed Assault,4,Military,61.0,El Salvador,5,Firearms,Automatic firearm,165.0,,15.0,,
19939,198310090001,1983,10,9,138,Myanmar,5,Southeast Asia,Rangoon,16.887781,96.149559,1,3,Bombing/Explosion,15,Religious Figures/Institutions,184.0,South Korea,6,Explosives,Explosive,21.0,,50.0,,
19940,198310090002,1983,10,9,61,El Salvador,2,Central America & Caribbean,Jutiapa,13.888888,-88.90163100000001,1,2,Armed Assault,14,Private Citizens & Property,61.0,El Salvador,5,Firearms,Automatic firearm,18.0,,0.0,,
